address,area,baths,beds,building type,latitude,longitude,neighborhood,price
27-28 Thomson Avenue #350,1901.0,2.5,2.0,Condo,40.74570084,-73.94180298,Hunters Point,2399000.0
27-21 44th Dr #2202,1263.0,2.0,3.0,Condo,40.7466011,-73.94159698,Hunters Point,1760000.0
85-15 Main Street #11G,N/A,1.0,1.0,Co-op,40.70970154,-73.81880188,Briarwood,199000.0
85-15 Main Street #PHP,N/A,1.0,1.0,Co-op,40.70970154,-73.81880188,Briarwood,185000.0
85-15 Main Street #4K,N/A,1.0,1.0,Co-op,40.70970154,-73.81880188,Briarwood,180000.0
85-15 Main Street #3K,N/A,1.0,1.0,Co-op,40.70970154,-73.81880188,Briarwood,180000.0
85-15 Main Street #7Q,N/A,1.0,1.0,Co-op,40.70970154,-73.81880188,Briarwood,178000.0
85-15 Main Street #PHH,N/A,1.0,1.0,Co-op,40.70970154,-73.81880188,Briarwood,175000.0
85-15 Main Street #9A,N/A,1.0,1.0,Co-op,40.70970154,-73.81880188,Briarwood,170000.0
85-15 Main Street #1A,N/A,1.0,1.0,Co-op,40.70970154,-73.81880188,Briarwood,165000.0
85-15 Main Street #3H,N/A,1.0,1.0,Co-op,40.70970154,-73.81880188,Briarwood,165000.0
31-15 101st Street,2280.0,3.0,6.0,Multi-family,40.76070023,-73.86779785,East Elmhurst,525000.0
85-15 Main Street #6S,N/A,1.0,N/A,Co-op,40.70970154,-73.81880188,Briarwood,95000.0
98-25 64 Road #C1,N/A,1.0,1.0,Co-op,40.73020172,-73.85739899,Rego Park,349000.0
27-21 44th Dr #2202,1263.0,2.0,3.0,Condo,40.7466011,-73.94159698,Hunters Point,1760000.0
27-28 Thomson Avenue #604,1338.0,2.0,N/A,Condo,40.74570084,-73.94180298,Hunters Point,1725000.0
220-55 46th Avenue #11S,630.0,1.0,N/A,Co-op,40.76079941,-73.75939941,Bayside,238000.0
26-27 28th Street,N/A,10.0,2.0,Multi-family,40.77000046,-73.9213028,Astoria,3100000.0
31-15 101st Street,2280.0,3.0,6.0,Multi-family,40.76070023,-73.86779785,East Elmhurst,525000.0
145-86 224th Street,3150.0,N/A,6.0,Multi-family,40.66090012,-73.75650024,Brookville,649000.0
91-10 32nd Avenue #E405,N/A,1.0,1.0,Co-op,40.75770187,-73.87680054,North Corona,250000.0
30-30 73rd Street,2761.0,3.0,5.0,Multi-family,40.75939941,-73.89489746,Jackson Heights,1349000.0
31-15 101st Street,2280.0,3.0,6.0,Multi-family,40.76070023,-73.86779785,East Elmhurst,880000.0
64-43 215th Street,1800.0,1.5,3.0,House,40.74449921,-73.76100159,Bayside,899000.0
21-16 35th Street #2C,N/A,1.0,2.0,Co-op,40.77600098,-73.90809631,Astoria,375000.0
105-25 67th Avenue #5C,400.0,1.0,N/A,Co-op,40.72900009,-73.84850311,Forest Hills,168000.0
48-09 58 Lane,4000.0,2.0,N/A,Townhouse,40.73820114,-73.90730286,Woodside,800000.0
216-18 115th Rd,N/A,N/A,3.0,House,40.69910049,-73.74140167,Cambria Heights,479000.0
86-10 34th Avenue #113,1250.0,2.0,2.0,Co-op,40.75389862,-73.88079834,Jackson Heights,774000.0
4-74 48th Avenue #PH2E,1005.0,2.0,2.0,Condop,40.74420166,-73.95680237,Hunters Point,890000.0
140-18 Burden Crescent #207,N/A,1.0,1.0,Co-op,40.71020126,-73.81690216,Briarwood,188000.0
149-48 24th Rd,N/A,3.0,5.0,House,40.77640152,-73.81580353,Flushing,1395000.0
112-20 72nd Drive #D34,N/A,1.0,2.0,Co-op,40.72000122,-73.83709717,Forest Hills,459000.0
53-37 65th Place,1368.0,1.5,N/A,Townhouse,40.73020172,-73.89990234,Elmhurst,889000.0
507 Beach 64th Street,N/A,N/A,5.0,Multi-family,40.59540176,-73.79380035,Arverne,575000.0
48-41 186th Street,1211.0,1.0,4.0,House,40.74729919,-73.79160309,Auburndale,788000.0
57-45 74th Street #G2,700.0,1.0,1.0,Condo,40.72740173,-73.88680267,Middle Village,368000.0
151-57 20th Avenue,N/A,1.0,3.0,House,40.78110123,-73.80989838,Flushing,1388000.0
90-06 199th Street,N/A,N/A,3.0,House,40.71609879,-73.76139832,Hollis,560000.0
137-23 171st Street,N/A,1.0,2.0,House,40.67210007,-73.76909637,Springfield Gardens,389000.0
89-06 70th Avenue,N/A,N/A,3.0,House,40.70930099,-73.85399628,Forest Hills,850000.0
77-58 76th Street,N/A,N/A,3.0,House,40.70510101,-73.87390137,Glendale,739000.0
21-10 44th Drive #4B,647.0,1.0,1.0,Condo,40.74779892,-73.9469986,Hunters Point,740000.0
10 Holder Place #3D,1525.0,2.0,3.0,Co-op,40.71829987,-73.84279633,Forest Hills,1490000.0
104-32 198th Street,1854.0,,3.0,House,40.70739,-73.7604,Hollis,500000.0
21-06 35th Street #3E,800.0,1.0,2.0,Other type,40.77600098,-73.90809631,Astoria,409000.0
88-28 74th Avenue,1600.0,1.0,3.0,House,40.70869827,-73.86209869,Glendale,849000.0
199-42 24th Rd,N/A,2.0,3.0,Multi-family,40.77479935,-73.79119873,Clearview,978000.0
159-04 84th Rd,N/A,N/A,3.0,House,40.71369934,-73.80580139,Jamaica Hills,739000.0
110-27 71st Avenue,5000.0,4.0,6.0,Townhouse,40.72280121,-73.84059906,Forest Hills,1988888.0
85-14 66th Road,1440.0,2.5,3.0,House,40.71780014,-73.86219788,Rego Park,849000.0
78-10 34th Avenue #1J,1000.0,2.0,2.0,Co-op,40.75310135,-73.88819885,Jackson Heights,525000.0
34-45 Leavitt Street #4A,N/A,2.0,2.0,Condo,40.76580048,-73.82879639,Flushing,699000.0
244-28 85th Rd,N/A,3.5,5.0,House,40.73210144,-73.72190094,Bellerose,1100000.0
213-06 75th Avenue #2K,N/A,1.0,1.0,Co-op,40.73730087,-73.75849915,Bayside,209900.0
67-90 Dartmouth Street,1800.0,N/A,3.0,House,40.72050095,-73.85430145,Forest Hills,1230000.0
21-10 44th Drive #4B,647.0,1.0,1.0,Condo,40.74779892,-73.9469986,Hunters Point,740000.0
44-15 Purves Street #3C,696.0,1.0,1.0,Condo,40.74710083,-73.94100189,Hunters Point,898000.0
171-10 119th Rd,N/A,2.0,3.0,House,40.68360138,-73.77400208,South Jamaica,449000.0
90-59 56th Avenue #8G,N/A,1.0,1.0,Co-op,40.73659897,-73.87069702,Elmhurst,239000.0
146-74 177th Street,N/A,3.0,6.0,Multi-family,40.66090012,-73.76920319,Springfield Gardens,749000.0
70-25 Yellowstone Boulevard #7B,N/A,1.0,N/A,Co-op,40.72200012,-73.84909821,Forest Hills,225000.0
92-29 Lamont Avenue #6F,N/A,1.0,2.0,Co-op,40.74549866,-73.87339783,Elmhurst,295000.0
66-15 Thornton Place #5M,950.0,1.0,2.0,Co-op,40.72309875,-73.85749817,Rego Park,359999.0
85-15 Main Street #PHQ,950.0,1.0,1.0,Co-op,40.70970154,-73.81880188,Briarwood,259000.0
58-27 84th Street,N/A,2.0,5.0,House,40.72900009,-73.87689972,Middle Village,995000.0
42-37 156th Street,2272.0,4.0,5.0,Multi-family,40.76010132,-73.80940247,Queensboro Hill,1390000.0
140-50 Burden Crescent #5H,900.0,1.0,1.5,Co-op,40.71060181,-73.81659698,Briarwood,239000.0
34-41 85th Street #6U,800.0,1.0,1.0,Co-op,40.75299835,-73.88179779,Jackson Heights,429000.0
60-36 70th Avenue,N/A,3.0,6.0,Multi-family,40.7018013,-73.89759827,Ridgewood,1150000.0
86-10 34th Avenue #113,1250.0,2.0,2.0,Co-op,40.75389862,-73.88079834,Jackson Heights,774000.0
4-74 48th Avenue #12C,800.0,1.0,1.0,Condop,40.74420166,-73.95680237,Hunters Point,665000.0
104-22 90th Avenue,1617.0,3.0,4.0,Multi-family,40.69300079,-73.84149933,Woodhaven,675000.0
219-18 Murdock Avenue,N/A,2.0,2.0,Townhouse,40.7030983,-73.73739624,Cambria Heights,429000.0
102-45 67th Rd #1,N/A,1.0,1.0,Co-op,40.7276001,-73.85050201,Forest Hills,219000.0
75-14 69th Rd,N/A,3.0,4.0,House,40.70840073,-73.87560272,Middle Village,1350000.0
83-55 Lefferts Boulevard #4D,N/A,1.0,1.0,Co-op,40.70470047,-73.83249664,Kew Gardens,217000.0
117-31 Inwood Street,1680.0,2.0,3.0,House,40.67910004,-73.7947998,South Jamaica,389000.0
71-38 Edsall Avenue,N/A,5.0,6.0,Multi-family,40.70619965,-73.88030243,Glendale,1500000.0
67-40 Yellowstone Boulevard #2O,N/A,1.0,1.0,Co-op,40.72729874,-73.84940338,Forest Hills,270000.0
63-61 99th Street #B12,850.0,1.0,1.0,Co-op,40.73139954,-73.85600281,Rego Park,335000.0
170-03 115th Avenue,N/A,3.0,5.0,Multi-family,40.68980026,-73.77890015,South Jamaica,749900.0
164-07 87th Street,N/A,1.0,3.0,House,40.64970016,-73.8431015,Rockwood Park,850000.0
103-25 68th Avenue #4L,N/A,1.0,1.0,Co-op,40.7262001,-73.84980011,Forest Hills,269000.0
2-40 51st Avenue #TH1C,1186.0,1.5,1.0,Condo,40.74229813,-73.9571991,Hunters Point,1198000.0
81-14 Queens Boulevard #5A,1020.0,2.0,2.0,Condo,40.737222,-73.881749,Elmhurst,750000.0
241-02 Weller Avenue,N/A,5.0,6.0,Multi-family,40.66189957,-73.7397995,Rosedale,879000.0
35-11 85th Street #4M,N/A,1.0,1.0,Co-op,40.75099945,-73.8812027,Jackson Heights,325000.0
25-37 45 Th Street,N/A,3.0,5.0,House,40.76499939,-73.90820313,Astoria,1350000.0
24-37 92nd Street,N/A,N/A,3.0,House,40.76490021,-73.87729645,East Elmhurst,779000.0
69-24 223rd Street,N/A,N/A,6.0,Multi-family,40.74319839,-73.75219727,Bayside,1599000.0
144-05 70th Rd,N/A,N/A,3.0,House,40.72900009,-73.82260132,Kew Gardens Hills,1195000.0
81-13 133rd Avenue,N/A,2.0,3.0,House,40.6739006,-73.854599,Ozone Park,450000.0
242-31 Oak Park Dr #B,1137.0,2.0,2.0,Condo,40.7466011,-73.73110199,Little Neck,699000.0
199-18 16th Avenue #26,N/A,1.0,2.0,Co-op,40.78310013,-73.79399872,Clearview,328888.0
37-55 84th Street #3,N/A,1.0,2.0,Co-op,40.74829865,-73.88189697,Jackson Heights,548500.0
70-20 108th Street #3F,N/A,1.0,1.0,Co-op,40.72240067,-73.84490204,Forest Hills,299000.0
118-60 Metropolitan Avenue #5C,N/A,1.0,2.0,Co-op,40.70600128,-73.83300018,Kew Gardens,295000.0
27-21 44th Dr #2202,1263.0,2.0,3.0,Condo,40.7466011,-73.94159698,Hunters Point,1760000.0
4-74 48th Avenue #27F,863.0,1.0,1.0,Condop,40.7445,-73.9565,Hunters Point,648000.0
33-21 99th Street,N/A,4.0,9.0,Multi-family,40.75650024,-73.86920166,North Corona,1600000.0
133-31 88th Street,N/A,3.0,7.0,Multi-family,40.67359924,-73.84760284,Ozone Park,1050000.0
61-15 98th Street #5,800.0,1.0,1.0,Co-op,40.73450089,-73.85949707,Rego Park,319000.0
43-30 54th Street,N/A,3.5,5.0,House,40.74280167,-73.91110229,Woodside,1300000.0
109-55 Lefferts Boulevard,N/A,4.0,6.0,Multi-family,40.68080139,-73.82129669,Richmond Hill,789000.0
141-34 78 Rd #3A,N/A,1.0,2.0,Co-op,40.71870041,-73.81900024,Kew Gardens Hills,295000.0
33-19 103rd Street,N/A,2.0,4.0,House,40.75699997,-73.86540222,North Corona,758000.0
94-30 60th Avenue #4,1260.0,1.5,3.0,Co-op,40.73429871,-73.86530304,Elmhurst,395000.0
53-94 66th Street,N/A,2.0,3.0,House,40.72850037,-73.89900208,Elmhurst,999000.0
214-26 24th Avenue,3000.0,2.0,5.0,House,40.77959824,-73.77469635,Bayside,1549000.0
30-54 89th Street,3908.0,2.5,3.0,House,40.76029968,-73.87979889,Jackson Heights,829000.0
118-11 84th Avenue #406,900.0,1.0,1.0,Co-op,40.70460129,-73.83339691,Kew Gardens,299000.0
45-02 Ditmars Boulevard #418,698.0,1.0,1.0,Condo,40.77000046,-73.9036026,Astoria,610000.0
81-14 Queens Boulevard #5A,1020.0,2.0,2.0,Condo,40.737222,-73.881749,Elmhurst,750000.0
147-10 84th Rd #2G,N/A,1.0,2.0,Co-op,40.71239853,-73.81189728,Briarwood,229000.0
110-45 Queens Boulevard #210,850.0,1.0,1.0,Co-op,40.71969986,-73.83879852,Forest Hills,359000.0
46 Wendover Road,N/A,2.5,4.0,House,40.71179962,-73.83930206,Forest Hills,1899000.0
35-48 223rd Street,N/A,5.0,4.0,House,40.76959991,-73.76229858,Bayside,2080000.0
39-35 51st Street #4G,N/A,1.0,1.0,Co-op,40.74760056,-73.91259766,Sunnyside,389000.0
111-07 62 Dr,1850.0,3.0,4.0,Multi-family,40.73699951,-73.84690094,Forest Hills,1380000.0
102-06 27th Avenue,2850.0,4.0,7.0,Multi-family,40.7635994,-73.86740112,East Elmhurst,1499999.0
71-37 Park Drive East #B,N/A,1.0,1.0,Condo,40.72679901,-73.82949829,Kew Gardens Hills,349000.0
69-36 Juniper Valley Rd,N/A,2.0,2.0,Multi-family,40.71440125,-73.88569641,Middle Village,719000.0
46-25 247th Street,N/A,N/A,3.0,House,40.76440048,-73.73829651,Little Neck,899000.0
13-24 125th Street,N/A,2.0,4.0,Multi-family,40.78609848,-73.84329987,College Point,949000.0
60-37 Putnam Avenue,N/A,2.0,5.0,Multi-family,40.70600128,-73.89959717,Ridgewood,999000.0
116-41 227th Street,N/A,2.0,3.0,House,40.69369888,-73.73349762,Cambria Heights,515000.0
27-28 Thomson Avenue #706,1348.0,2.0,1.0,Condo,40.74570084,-73.94180298,Hunters Point,1585000.0
344 Beach 87th Street,N/A,3.0,6.0,Multi-family,40.58990097,-73.81220245,Hammels,579000.0
223-41 107th Avenue,N/A,3.0,4.0,House,40.70796,-73.72908,Queens Village,525000.0
67-30 Dartmouth Street #2H,800.0,1.0,1.0,Co-op,40.72119904,-73.85620117,Forest Hills,249000.0
147-07 10th Avenue #1,4434.0,4.0,6.0,Multi-family,40.79159927,-73.81990051,Whitestone,2500000.0
111-39 76 Road #E3,N/A,1.0,N/A,Co-op,40.71670151,-73.83589935,Forest Hills,228000.0
5918 Putnam Avenue # 2-FAMILY #1,2693.0,2.0,6.0,Multi-family,40.70510101,-73.90139771,Ridgewood,999723.0
7230 Burchell Avenue,1680.0,4.0,7.0,Multi-family,40.59619904,-73.80220032,Arverne,449000.0
2 Bay Club Dr #10V,950.0,1.0,2.0,Condo,40.77830124,-73.78109741,Bay Terrace (Queens),668000.0
37-11 84th Street #31,N/A,1.0,2.0,Co-op,40.74950027,-73.88210297,Jackson Heights,599000.0
226-26 77th Avenue,1784.0,2.5,3.0,House,40.73889923,-73.74520111,Bayside,939000.0
35-22 80th Street #32,N/A,1.0,1.0,Co-op,40.75090027,-73.88670349,Jackson Heights,349000.0
146-26 35th Avenue,N/A,N/A,7.0,Multi-family,40.76620102,-73.81990051,Murray Hill (Queens),1850000.0
21-10 44th Drive #4B,647.0,1.0,1.0,Condo,40.74779892,-73.9469986,Hunters Point,740000.0
140-50 Burden Crescent #5H,900.0,1.0,1.5,Co-op,40.71060181,-73.81659698,Briarwood,239000.0
206-12 Lori Dr #77L,N/A,N/A,2.0,Condo,40.78779984,-73.78730011,Bay Terrace (Queens),859000.0
137-33 68th Drive #B,665.0,1.0,2.0,Co-op,40.73109818,-73.82980347,Kew Gardens Hills,175000.0
127-17 Ninth Avenue,N/A,1.0,3.0,House,40.78950119,-73.84020233,College Point,650000.0
23-25 31st Avenue #PHC,741.0,1.0,1.0,Condo,40.766535,-73.927387,Astoria,799000.0
106-10 103rd Avenue,2185.0,1.0,3.0,House,40.68470001,-73.83540344,Woodhaven,529000.0
72-15 37th Avenue #6C,N/A,1.0,N/A,Co-op,40.74900055,-73.89330292,Jackson Heights,248500.0
80-51 263rd Street,N/A,1.0,4.0,House,40.74399948,-73.70749664,Glen Oaks Village,668000.0
164-28 109th Dr,1035.0,2.0,4.0,House,40.69469833,-73.78659821,South Jamaica,299900.0
151 Beach 96th Street #6C,1239.0,2.0,2.0,Condo,40.58369827,-73.81739807,Rockaway All,599000.0
154-33 12th Avenue,N/A,1.0,3.0,House,40.79169846,-73.80599976,Beechhurst,760000.0
133-25 84th Street,1216.0,N/A,3.0,House,40.6733017,-73.85179901,Ozone Park,540000.0
110-26 157th Street,N/A,N/A,4.0,House,40.69079971,-73.7928009,South Jamaica,489000.0
10 Holder Place #3D,1525.0,2.0,3.0,Co-op,40.71829987,-73.84279633,Forest Hills,1490000.0
61-20 Grand Central Pkwy #A405,1350.0,2.0,3.0,Co-op,40.7378006,-73.84750366,Forest Hills,589000.0
205-28 116th Rd,N/A,2.0,3.0,House,40.69639969,-73.74700165,St. Albans,439000.0
91-66 110th Street,1134.0,2.5,3.0,Multi-family,40.69229889,-73.83630371,Richmond Hill,649000.0
27-28 Thomson Avenue #542,1178.0,1.5,1.0,Condo,40.74570084,-73.94180298,Hunters Point,1295000.0
72-74 Calamus Avenue,N/A,2.5,5.0,House,40.73450089,-73.88960266,Elmhurst,1148000.0
4-74 48th Avenue #5C,427.0,1.0,N/A,Condop,40.7445,-73.9565,Hunters Point,455000.0
116-23 125th Street #40D,N/A,1.5,3.0,House,40.67610168,-73.81300354,South Ozone Park,399000.0
116-23 125th Street #40D,N/A,1.5,3.0,House,40.67610168,-73.81300354,South Ozone Park,399000.0
116-23 125th Street #40D,N/A,1.5,3.0,House,40.67610168,-73.81300354,South Ozone Park,399000.0
116-23 125th Street #40D,N/A,1.5,3.0,House,40.67610168,-73.81300354,South Ozone Park,399000.0
116-23 125th Street #40D,N/A,1.5,3.0,House,40.67610168,-73.81300354,South Ozone Park,399000.0
116-23 125th Street #40D,N/A,1.5,3.0,House,40.67610168,-73.81300354,South Ozone Park,399000.0
116-23 125th Street #40D,N/A,1.5,3.0,House,40.67610168,-73.81300354,South Ozone Park,399000.0
27-21 44th Dr #2202,1263.0,2.0,3.0,Condo,40.7466011,-73.94159698,Hunters Point,1760000.0
25-26 78th Street,1723.0,2.0,3.0,Multi-family,40.76190186,-73.89060211,Jackson Heights,500000.0
168-01 32nd Avenue,N/A,N/A,4.0,House,40.76910019,-73.79699707,Murray Hill (Queens),1120000.0
50-04 65th Place,1700.0,N/A,7.0,Multi-family,40.73680115,-73.90029907,Elmhurst,1350000.0
50-14 48th Street,1760.0,N/A,5.0,Multi-family,40.73680115,-73.91829681,Sunnyside,988800.0
67-76 Booth Street #2I,1100.0,1.0,2.0,Co-op,40.72449875,-73.85209656,Forest Hills,395000.0
161-21 120th Avenue,N/A,2.0,3.0,House,40.68030167,-73.78179932,South Jamaica,679000.0
73-11 Bell Boulevard #2B,800.0,1.0,1.0,Co-op,40.7397995,-73.75730133,Bayside,209900.0
701 College Point Boulevard,N/A,2.0,4.0,Multi-family,40.79069901,-73.84519958,College Point,725000.0
212-30 23rd Avenue #6K,N/A,2.0,2.0,Co-op,40.78170013,-73.77680206,Bay Terrace (Queens),364888.0
34-51 64th Street,N/A,3.0,3.0,Multi-family,40.75080109,-73.89849854,Woodside,1088888.0
43-25 Douglaston Parkway #1C,N/A,2.0,2.0,Co-op,40.76699829,-73.74559784,Little Neck,449000.0
258-03 Craft Avenue,N/A,N/A,3.0,House,40.6515007,-73.73069763,Rosedale,389000.0
83-80 118th Street #4N,975.0,1.0,2.0,Co-op,40.70479965,-73.83439636,Kew Gardens,288000.0
4-74 48th Avenue #30F,863.0,1.0,1.0,Condop,40.74420166,-73.95680237,Hunters Point,665000.0
27-21 44th Dr #2202,1263.0,2.0,3.0,Condo,40.7466011,-73.94159698,Hunters Point,1760000.0
14-21 Pinson Street,4000.0,4.0,6.0,House,40.60889816,-73.75509644,Far Rockaway,499000.0
13105 40th Rd #PH1C,787.0,1.0,1.0,Condo,40.11240005,-77.51959991,Queens,789000.0
198-07 Dunton Avenue #2B,670.0,1.0,1.0,Co-op,40.72090149,-73.76540375,Jamaica Estates,199000.0
61-05 39th Avenue #E4,745.0,1.0,1.0,Condo,40.74729919,-73.90219879,Woodside,555000.0
147-18 Hawthorne Avenue,N/A,N/A,6.0,Multi-family,40.75490189,-73.813797,Queensboro Hill,1350000.0
25-26 78th Street,1723.0,2.0,3.0,Multi-family,40.76190186,-73.89060211,Jackson Heights,500000.0
140-52 161st Street,1152.0,2.0,3.0,House,40.66870117,-73.77459717,Springfield Gardens,399000.0
85-36 Parsons Boulevard,N/A,N/A,4.0,Multi-family,40.71110153,-73.8062973,Briarwood,929990.0
140-52 161st Street,2042.0,2.0,3.0,House,40.66870117,-73.77459717,Springfield Gardens,399000.0
123-06 23rd Avenue,N/A,1.0,2.0,House,40.77840042,-73.84490204,College Point,550000.0
79-39 Calamus Avenue #4D,1194.0,3.0,3.0,Condo,40.73419952,-73.88549805,Elmhurst,609000.0
117-37 Van Wyck Expy,1552.0,2.0,3.0,House,40.67689896,-73.80180359,South Jamaica,330000.0
4-74 48th Avenue #31HJ,1560.0,2.0,3.0,Condop,40.74420166,-73.95680237,Hunters Point,1299000.0
10-27 47th Road #PHB,1581.0,3.0,3.0,Condo,40.74480057,-73.95220184,Hunters Point,2175000.0
4238 Judge Street #5B,780.0,2.0,1.0,Condo,40.7439003,-73.88009644,Elmhurst,499000.0
38-30 Douglaston Pky #4H,N/A,1.0,1.0,Co-op,40.77159882,-73.75099945,Little Neck,298000.0
87-88 144th Street,N/A,3.0,6.0,Multi-family,40.70460129,-73.81199646,Jamaica,950000.0
81-25 156th Avenue #1,N/A,1.0,3.0,Co-op,40.66350174,-73.85040283,Lindenwood,224000.0
133-26 245th Street,N/A,3.0,3.0,House,40.67359924,-73.72910309,Rosedale,499990.0
67-38 108th Street #C67,950.0,1.0,2.0,Co-op,40.72769928,-73.84770203,Forest Hills,399000.0
114-03 Inwood Street,1600.0,1.5,3.0,Townhouse,40.68500137,-73.79789734,Jamaica,150000.0
2 Point Crescent,N/A,N/A,5.0,House,40.79100037,-73.82969666,Malba,2649000.0
104-12 104th Street,N/A,3.0,5.0,Multi-family,40.68149948,-73.83709717,Richmond Hill,989000.0
4 Point Crescent,N/A,4.0,5.0,House,40.79090118,-73.83000183,Malba,3659000.0
198-08 Pompeii Avenue #1,N/A,1.0,1.0,Co-op,40.72090149,-73.76540375,Jamaica Estates,170000.0
213-08 73rd Avenue #1N,N/A,1.0,1.0,Condo,40.73949814,-73.76049805,Oakland Gardens,181888.0
61-20 Grand Central Pkwy #A405,1350.0,2.0,3.0,Co-op,40.7378006,-73.84750366,Forest Hills,589000.0
81-23 102nd Avenue,N/A,2.5,3.0,House,40.68050003,-73.85669708,Woodhaven,639000.0
38-25 Parsons Boulevard #7,1200.0,2.0,3.0,Co-op,40.76210022,-73.82180023,Murray Hill (Queens),558000.0
150-07 Reeves Avenue,N/A,N/A,3.0,House,40.73899841,-73.81960297,Kew Gardens Hills,998000.0
6119 Grand Avenue,N/A,2.0,4.0,Multi-family,40.72249985,-73.90350342,Maspeth,1180000.0
79-58 68th Rd,N/A,2.0,3.0,Multi-family,40.71030045,-73.87120056,Glendale,819000.0
114-20 Queens Boulevard #E9,950.0,1.0,2.0,Co-op,40.71649933,-73.83480072,Forest Hills,359000.0
118-42 200th Street,N/A,2.0,4.0,Multi-family,40.69210052,-73.75180054,St. Albans,399900.0
143-51 Franklin Avenue,2748.0,4.5,4.0,House,40.7582016,-73.8207016,Flushing,1680000.0
100-25 Queens Boulevard #4H,1400.0,2.0,3.0,Condo,40.72700119,-73.85230255,Forest Hills,750000.0
109-14 Ascan Avenue #1F,N/A,1.0,1.0,Co-op,40.71860123,-73.83999634,Forest Hills,299000.0
33-02 Parsons Boulevard,3775.0,N/A,5.0,House,40.76789856,-73.82460022,Queensboro Hill,2900000.0
162-21 Powells Cove Boulevard #3E,1000.0,1.0,2.0,Co-op,40.79499817,-73.79850006,Beechhurst,379000.0
79-15 35th Avenue #4C,1050.0,1.0,2.0,Condo,40.75180054,-73.88690186,Jackson Heights,730000.0
91-16 Shorefront Pkwy #2H,1187.0,2.0,2.0,Condo,40.58459854,-73.81340027,Hammels,529000.0
10-27 47th Road #PHB,1581.0,3.0,3.0,Condo,40.74480057,-73.95220184,Hunters Point,2175000.0
196-19 Station Rd,N/A,N/A,2.0,House,40.76160049,-73.78549957,East Flushing,699000.0
144-25 South Dr,N/A,5.0,4.0,House,40.7901001,-73.82520294,Malba,2898000.0
85-16 88th Avenue,N/A,N/A,3.0,Multi-family,40.69070053,-73.85780334,Woodhaven,750000.0
68-21 76th Street,N/A,N/A,4.0,Multi-family,40.71030045,-73.87599945,Glendale,589000.0
20-40 29th Street,N/A,3.0,3.0,Multi-family,40.77970123,-73.90850067,Astoria,1164000.0
86-09 88th Avenue,N/A,N/A,4.0,House,40.69110107,-73.85720062,Woodhaven,608000.0
108-05 Astoria Boulevard #1A,N/A,1.0,1.0,Co-op,40.76060104,-73.8608017,East Elmhurst,220000.0
107-33 Princeton Street,N/A,2.0,3.0,Multi-family,40.69142,-73.8029,South Jamaica,409000.0
85-01 87th Street,N/A,3.0,6.0,Multi-family,40.69540024,-73.85780334,Woodhaven,1199999.0
57-50 Little Neck Pky,1396.0,N/A,5.0,Multi-family,40.76250076,-73.72370148,Little Neck,1100000.0
65-01 Woodside Avenue,N/A,2.0,4.0,Multi-family,40.7439003,-73.89980316,Woodside,1300000.0
144-07 Sanford Avenue #1D,800.0,1.0,1.0,Co-op,40.75930023,-73.82050323,Murray Hill (Queens),338000.0
137-33 68th Drive #B,665.0,1.0,2.0,Co-op,40.73109818,-73.82980347,Kew Gardens Hills,175000.0
140-50 Burden Crescent #5H,900.0,1.0,1.5,Co-op,40.71060181,-73.81659698,Briarwood,239000.0
87-31 109th Street,1500.0,N/A,5.0,House,40.69509888,-73.83809662,Richmond Hill,799000.0
76-50 47th Avenue #1ST,N/A,5.0,8.0,Multi-family,40.73970032,-73.88629913,Elmhurst,1658000.0
218-49 Sawyer Avenue,N/A,3.5,4.0,Multi-family,40.73099899,-73.74700165,Queens Village,848000.0
64-34 102nd Street #5O,N/A,1.0,1.0,Co-op,40.73059845,-73.85350037,Rego Park,245000.0
64-20 Bell Boulevard,2328.0,2.0,3.0,House,40.74530029,-73.76080322,Bayside,950000.0
140-05 32nd Avenue,N/A,N/A,3.0,House,40.76879883,-73.82830048,Flushing,1390000.0
140-03 32nd Avenue,N/A,N/A,3.0,House,40.76869965,-73.82839966,Flushing,1390000.0
83-20 98th Street #4C,N/A,1.0,2.0,Co-op,40.69940186,-73.8513031,Woodhaven,289000.0
140 Prospect Avenue,N/A,3.5,3.0,House,40.77230072,-73.74790192,Douglaston,1580000.0
18-50 211th Street #3C,N/A,1.0,2.0,Co-op,40.78039932,-73.78199768,Bay Terrace (Queens),339000.0
118-36 219th Street,N/A,2.0,5.0,House,40.69290161,-73.74269867,Cambria Heights,609000.0
10740 Queens Boulevard #18D,589.0,1.0,N/A,Co-op,40.72129822,-73.84500122,Forest Hills,368000.0
116-41 227th Street,N/A,2.0,3.0,House,40.69369888,-73.73349762,Cambria Heights,515000.0
140-50 Burden Crescent #5H,900.0,1.0,1.5,Co-op,40.71060181,-73.81659698,Briarwood,239000.0
253-46 147th Avenue,N/A,N/A,3.0,House,40.65729904,-73.73459625,Rosedale,455000.0
32-28 163rd Street,N/A,N/A,3.0,House,40.76839828,-73.8022995,Murray Hill (Queens),1080000.0
229-17 56th Avenue,N/A,N/A,3.0,House,40.75550079,-73.75099945,Bayside,957777.0
141-11 71st Rd,N/A,1.0,2.0,House,40.72700119,-73.8239975,Kew Gardens Hills,688000.0
24960 Thebes Avenue,2093.0,N/A,3.0,House,40.76649857,-73.73400116,Little Neck,929000.0
78-38 220 Place,N/A,2.0,4.0,House,40.73590088,-73.75119781,Bayside,889000.0
168-11 18th Avenue,N/A,N/A,3.0,House,40.78139877,-73.7947998,Clearview,818000.0
10-11 162nd Street #7A,N/A,1.0,1.0,Co-op,40.792099,-73.79949951,Beechhurst,298000.0
240-10 51st Avenue,4000.0,5.0,5.0,House,40.75989914,-73.74299622,Little Neck,2688000.0
73-62 Bell Boulevard #6O,N/A,1.0,1.0,Co-op,40.73949814,-73.76049805,Oakland Gardens,209000.0
61-18 220th Street,N/A,N/A,5.0,House,40.74810028,-73.75789642,Bayside,1150000.0
5238 Little Neck Pky,N/A,3.0,4.0,House,40.76720047,-73.72850037,Little Neck,998000.0
21-10 44th Drive #3A,653.0,1.0,1.0,Condo,40.74779892,-73.9469986,Hunters Point,725000.0
91-16 Shorefront Pkwy #2H,1187.0,2.0,2.0,Condo,40.58459854,-73.81340027,Hammels,529000.0
5238 Little Neck Pky,N/A,3.0,4.0,House,40.76720047,-73.72850037,Little Neck,998000.0
84-07 108th Avenue,N/A,2.0,3.0,House,40.67720032,-73.85240173,Ozone Park,575000.0
178-44 Kildare Rd,N/A,3.0,4.0,House,40.72340012,-73.78759766,Fresh Meadows,1290000.0
72-36 Calamus Avenue,2727.0,N/A,6.0,Multi-family,40.7344017,-73.89080048,Elmhurst,1490000.0
79-14 212nd Street,N/A,3.0,4.0,House,40.73490143,-73.75980377,Bayside,1150000.0
136-18 62 Rd,N/A,N/A,6.0,Multi-family,40.74060059,-73.82939911,Kew Gardens Hills,1580000.0
43-57 Union Street #4C,N/A,1.0,2.0,Co-op,40.75350189,-73.81990051,East Flushing,319000.0
4-74 48th Avenue #10B,1200.0,2.0,3.0,Co-op,40.74420166,-73.95680237,Hunters Point,875000.0
535 Beach 65th Street,2160.0,N/A,5.0,Multi-family,40.59609985,-73.7947998,Arverne,480000.0
66-10 Thornton Place #4C,700.0,1.0,1.0,Co-op,40.72330093,-73.85829926,Rego Park,239888.0
66-21 Saunders Street,N/A,3.0,3.0,House,40.72679901,-73.85540009,Rego Park,999888.0
22-20 77th Street #D1,772.0,1.0,1.0,Condo,40.76779938,-73.8927002,Astoria,425000.0
61-05 39th Avenue #4F,854.0,1.0,1.0,Condo,40.74729919,-73.90219879,Woodside,588000.0
27-28 Thomson Avenue #706,1348.0,2.0,1.0,Condo,40.74570084,-73.94180298,Hunters Point,1585000.0
33-44 93rd Street #6R,700.0,1.0,1.0,Co-op,40.75569916,-73.87539673,North Corona,205000.0
84-70 129th Street #6G,450.0,1.0,N/A,Co-op,40.70500183,-73.82420349,Kew Gardens,88000.0
22-31 74th Street,4233.0,1.0,N/A,House,40.76729965,-73.89499664,Astoria,2100000.0
85-15 Main Street #8P,N/A,1.0,1.0,Co-op,40.70970154,-73.81880188,Briarwood,175000.0
84-01 Main Street #718,N/A,1.0,1.0,Co-op,40.71319962,-73.81639862,Briarwood,210000.0
18-40 211th Street #3K,1100.0,1.0,2.0,Co-op,40.78030014,-73.7818985,Bay Terrace (Queens),295000.0
52-21 65th Place #5L,N/A,1.0,2.0,Co-op,40.73300171,-73.89980316,Elmhurst,250000.0
115-23 199th Street,N/A,N/A,5.0,House,40.69710159,-73.75409698,St. Albans,599000.0
74-56 260th Street #1G,N/A,1.0,2.0,Co-op,40.74810028,-73.71530151,Glen Oaks Village,309000.0
34-40 29th Street,N/A,2.0,4.0,Multi-family,40.7594986,-73.92990112,Long Island City,1299000.0
111-14 128th Street,N/A,2.5,4.0,House,40.68230057,-73.81349945,Richmond Hill,589000.0
61-15 98th Street #3K,N/A,1.0,2.0,Co-op,40.73450089,-73.85949707,Rego Park,449000.0
4-74 48th Avenue #30F,863.0,1.0,1.0,Condop,40.74420166,-73.95680237,Hunters Point,665000.0
45-02 Ditmars Boulevard #418,698.0,1.0,1.0,Condo,40.77000046,-73.9036026,Astoria,610000.0
33-40 157th Street,6000.0,4.5,7.0,House,40.76720047,-73.80799866,Murray Hill (Queens),1899000.0
84-09 101st Avenue,N/A,5.0,7.0,Multi-family,40.68190002,-73.85510254,Woodhaven,1200000.0
144-60 Gravett Road #3J,750.0,1.0,1.0,Co-op,40.73509979,-73.82289886,Flushing,120000.0
114-20 169th Street,N/A,N/A,4.0,House,40.69020081,-73.78050232,South Jamaica,419000.0
33-45 90th Street #4C,1000.0,1.0,2.0,Co-op,40.75550079,-73.87729645,North Corona,268000.0
133-38 Avery Avenue #2C,866.0,1.0,1.0,Condo,40.75279999,-73.83029938,Flushing,619000.0
164-34 99th Street,2500.0,3.0,5.0,Multi-family,40.65055,-73.8322,Old Howard Beach,679000.0
42-20 Kissena Boulevard #D15,750.0,1.0,1.0,Condo,40.75640106,-73.82659912,Flushing,369000.0
10 West 18th Road,N/A,2.0,4.0,House,40.60010147,-73.82109833,Broad Channel,459000.0
87-37 139th Street,N/A,3.0,3.0,House,40.70550156,-73.81500244,Briarwood,675000.0
147-19 6th Avenue,N/A,2.0,3.0,House,40.79459,-73.82122,Whitestone,895000.0
144-43 183rd Street,1780.0,2.5,4.0,House,40.66546,-73.76168,Springfield Gardens,489000.0
86-10 34th Avenue #113,1250.0,2.0,2.0,Co-op,40.75389862,-73.88079834,Jackson Heights,774000.0
34-48 86th Street,2600.0,3.5,5.0,House,40.75270081,-73.88140106,Jackson Heights,1675000.0
91-10 212nd Street,N/A,3.0,4.0,House,40.72017,-73.74922,Queens Village,625000.0
"16 W 5th Rd,",N/A,1.0,2.0,House,40.61090088,-73.81960297,Broad Channel,364000.0
61-56 56th Road,N/A,3.0,5.0,House,40.72336,-73.90246,Maspeth,875000.0
47-31 47th Street,1196.0,2.0,4.0,House,40.74010086,-73.91819763,Sunnyside,1958000.0
120-12 232nd Street,N/A,,N/A,N/A,40.68867,-73.73136,N/A,400000.0
164-41 86th Street,N/A,3.0,4.0,House,40.64862,-73.8437,Rockwood Park,899000.0
111-50 205th Street,1080.0,2.0,3.0,House,40.70394,-73.75175,St. Albans,449000.0
79-32 69th Avenue,N/A,N/A,5.0,Multi-family,40.70962,-73.87215,Glendale,849999.0
94-12 86th Street,N/A,2.0,5.0,Multi-family,40.685684,-73.85572,Woodhaven,910000.0
151-27 80th Street,N/A,4.0,6.0,Multi-family,40.66647,-73.85399,Lindenwood,819000.0
23-07 149th Street,N/A,N/A,3.0,House,40.77781,-73.81716,Flushing,799000.0
157-08 115 Rd,N/A,,N/A,N/A,40.68619,-73.7878,N/A,639000.0
4-74 48th Avenue #31HJ,1560.0,2.0,3.0,Condop,40.74420166,-73.95680237,Hunters Point,1299000.0
10-27 47th Road #PHB,1581.0,3.0,3.0,Condo,40.74480057,-73.95220184,Hunters Point,2175000.0
115-38 146th Street,N/A,N/A,3.0,House,40.68246,-73.7961,South Jamaica,415000.0
102-13 164th Avenue,N/A,,N/A,N/A,40.65209961,-73.8286972,N/A,142300.0
340 Parsons Boulevard,N/A,N/A,5.0,House,40.7942009,-73.82620239,Malba,3489000.0
153-11 110 Rd,N/A,4.0,5.0,Multi-family,40.701778,-73.808418,South Jamaica,680000.0
84-14 89th Avenue,N/A,2.0,3.0,House,40.68895,-73.85818,Woodhaven,539000.0
189-44 46th Avenue,N/A,N/A,4.0,House,40.75329,-73.78976,East Flushing,924500.0
126-13 116th Avenue,2000.0,2.0,2.0,House,40.6772995,-73.81220245,South Ozone Park,425000.0
26-13 168th Street,N/A,N/A,4.0,House,40.7723999,-73.79650116,Murray Hill (Queens),899000.0
14-02 Cross Bay Boulevard,N/A,2.0,5.0,House,40.60290146,-73.81980133,Broad Channel,399000.0
89-57 217th Street,N/A,2.0,2.0,House,40.72609,-73.74519,Queens Village,499888.0
92-81 222nd Street,1746.0,1.0,3.0,House,40.72384,-73.73347,Queens Village,489000.0
115-31 204th Street,N/A,2.0,3.0,House,40.69818,-73.74955,St. Albans,439000.0
44-15 Purves #5A,965.0,2.0,2.0,Condo,40.74710083,-73.94100189,Hunters Point,1195000.0
27-21 44th Dr #2203,648.0,1.0,1.0,Condo,40.7466011,-73.94159698,Hunters Point,890000.0
189-19 Pineville Ln,N/A,N/A,3.0,House,40.68270111,-73.7539978,Springfield Gardens,449000.0
6020 Cooper Avenue,N/A,,5.0,Multi-family,40.6955986,-73.89489746,Glendale,1195000.0
134-10 245th Street,N/A,3.0,3.0,House,40.659401,-73.740044,Rosedale,499000.0
14-38 Gipson Street,N/A,3.0,4.0,House,40.60645,-73.758562,Far Rockaway,419000.0
35-28 217th Street,N/A,N/A,3.0,House,40.764775,-73.765809,Bayside,798000.0
144-39 222nd Street,2304.0,2.0,6.0,Multi-family,40.66439819,-73.75610352,Brookville,575000.0
43-10 Skillman Avenue,2080.0,2.0,5.0,Multi-family,40.746511,-73.921135,Sunnyside,1758000.0
41-24 45th Street,6600.0,8.0,7.0,Multi-family,40.745949,-73.918934,Sunnyside,3088000.0
85-07 67th Drive,2540.0,3.0,5.0,Multi-family,40.716411,-73.860939,Rego Park,1111888.0
41-22 45th Street,6600.0,8.0,7.0,Multi-family,40.746112,-73.919277,Sunnyside,2888000.0
47-21 49th Street,2916.0,N/A,8.0,Multi-family,40.74020004,-73.91629791,Sunnyside,1648000.0
203-02 104th Avenue,N/A,N/A,7.0,House,40.70930099,-73.75579834,Hollis,569000.0
27-21 44th Dr #2203,648.0,1.0,1.0,Condo,40.7466011,-73.94159698,Hunters Point,890000.0
81-14 Queens Boulevard #5A,1020.0,2.0,2.0,Condo,40.737222,-73.881749,Elmhurst,750000.0
89-28 90th Street,N/A,N/A,3.0,House,40.691704,-73.854187,Woodhaven,584999.0
80-02 32nd Avenue,N/A,3.0,10.0,Multi-family,40.75730133,-73.88739777,Jackson Heights,1399000.0
114-37 220th Street,N/A,N/A,4.0,House,40.70049,-73.73703,Cambria Heights,560000.0
174-39 128th Avenue,N/A,N/A,3.0,House,40.68050003,-73.76809692,Springfield Gardens,399000.0
175-07 145th Avenue,4050.0,2.0,4.0,House,40.66479874,-73.77290344,Springfield Gardens,479000.0
7511 61st Street,N/A,2.0,5.0,Multi-family,40.69829941,-73.89379883,Glendale,788000.0
14625 224th Street,3492.0,N/A,6.0,Multi-family,40.659774,-73.756747,Brookville,659900.0
194-15 Station Road,N/A,1.0,3.0,House,40.76147,-73.78751,East Flushing,669000.0
119-54 177th Street,3680.0,1.0,3.0,House,40.6855,-73.7684,St. Albans,415000.0
197-16 104th Avenue,N/A,N/A,5.0,House,40.70808,-73.76066,Hollis,499000.0
155-12 Killarney Street,N/A,3.0,6.0,Multi-family,40.66575,-73.8392,Old Howard Beach,849000.0
207-21 Hollis Avenue,N/A,,3.0,Multi-family,40.71166,-73.73756,Queens Village,459000.0
34-40 79th Street #1F,N/A,2.0,2.0,Co-op,40.7521019,-73.88790131,Jackson Heights,649000.0
34-48 86th Street,2600.0,3.5,5.0,House,40.75270081,-73.88140106,Jackson Heights,1675000.0
174-09 140th Avenue,N/A,N/A,2.0,House,40.67139816,-73.76609802,Springfield Gardens,419000.0
12 West 11th Road,N/A,1.0,3.0,House,40.60499954,-73.82050323,Broad Channel,349000.0
80-12 95th Avenue,N/A,3.0,6.0,Multi-family,40.683418,-73.859611,Woodhaven,649000.0
228-70 Mentone Avenue,N/A,N/A,3.0,House,40.66669846,-73.74549866,Laurelton,320000.0
118-40 219th Street,N/A,1.0,3.0,House,40.69275,-73.74275,Cambria Heights,440000.0
73-26 68th Avenue,N/A,N/A,3.0,House,40.710449,-73.877899,Glendale,759999.0
107-12 134th Street,1728.0,N/A,4.0,Multi-family,40.6875,-73.81079865,Richmond Hill,786000.0
43-04 223rd Street,N/A,3.0,6.0,Multi-family,40.763008,-73.759071,Bayside,1378000.0
96-07 157th Avenue,N/A,2.0,5.0,Multi-family,40.663004,-73.837669,Old Howard Beach,740000.0
114-24 117th Street,N/A,N/A,3.0,House,40.67750168,-73.8219986,South Ozone Park,549000.0
206-08 116th Avenue,1260.0,N/A,3.0,House,40.69747,-73.7463,Cambria Heights,360000.0
131-73 226th Street,N/A,N/A,3.0,House,40.67869949,-73.74299622,Laurelton,440000.0
4-74 48th Avenue #PH2E,1005.0,2.0,2.0,Condop,40.74420166,-73.95680237,Hunters Point,890000.0
107-52 110th Street,N/A,2.5,3.0,House,40.68069839,-73.83049774,Richmond Hill,599995.0
145-14 220th Street,1680.0,N/A,3.0,House,40.66419983,-73.75849915,Brookville,415000.0
225-52 Murdock Avenue,1683.0,2.0,3.0,House,40.70283,-73.73056,Cambria Heights,409999.0
159-20 82nd Street,5000.0,N/A,4.0,House,40.6577,-73.850197,Rockwood Park,1295000.0
90-79 180th Street,N/A,,N/A,N/A,40.70896,-73.78048,N/A,349999.0
95-12 161st Avenue,N/A,3.0,3.0,House,40.655956,-73.836624,Old Howard Beach,765000.0
109-12 215th Street,N/A,N/A,4.0,House,40.70952,-73.74315,Queens Village,499900.0
116-26 201st Street,N/A,2.0,3.0,House,40.693291,-73.756447,St. Albans,459000.0
113-11 201st Street,N/A,2.0,4.0,House,40.70222,-73.75039,St. Albans,439000.0
66-37 75th Street,N/A,N/A,3.0,House,40.714683,-73.878326,Middle Village,725000.0
159-22 90th Street,N/A,2.0,5.0,House,40.658065,-73.842826,Rockwood Park,699000.0
428 Beach 25th Street,N/A,3.0,4.0,Multi-family,40.598272,-73.759998,Far Rockaway,510000.0
117-15 232nd Street,N/A,2.0,3.0,House,40.695164,-73.727912,Cambria Heights,469000.0
61-09 39th Avenue #5H,706.0,1.0,1.0,Condo,40.74729919,-73.90219879,Woodside,498000.0
4-74 48th Avenue #12C,800.0,1.0,1.0,Condop,40.74420166,-73.95680237,Hunters Point,665000.0
91-43 114th Street,N/A,N/A,3.0,House,40.700539,-73.828056,Richmond Hill,699000.0
187-21 Quencer Rd,N/A,N/A,3.0,House,40.69628,-73.76801,St. Albans,415000.0
136-44 222nd Street,N/A,2.0,3.0,House,40.67480087,-73.74939728,Laurelton,345000.0
98-19 32nd Avenue,N/A,3.0,6.0,Multi-family,40.759062,-73.870477,East Elmhurst,529000.0
106-38 80th Street,N/A,2.0,3.0,Multi-family,40.677471,-73.857283,Ozone Park,599000.0
168-12 116th Avenue,N/A,N/A,4.0,House,40.687366,-73.779415,South Jamaica,329000.0
174-18 126th Avenue,N/A,2.0,3.0,House,40.681326,-73.769313,Springfield Gardens,459000.0
163-14 96th Street,N/A,3.0,5.0,House,40.652547,-73.835356,Old Howard Beach,750000.0
151-27 12th Road,N/A,N/A,3.0,House,40.790602,-73.810871,Whitestone,729000.0
134-26 228th Street,N/A,N/A,4.0,House,40.67599869,-73.74289703,Laurelton,339000.0
223-16 109th Avenue,N/A,,N/A,N/A,40.70721,-73.732612,N/A,250000.0
114-22 125th Street,N/A,2.0,4.0,House,40.67950058,-73.81510162,South Ozone Park,425000.0
4-74 48th Avenue #12C,800.0,1.0,1.0,Condop,40.74420166,-73.95680237,Hunters Point,665000.0
137-33 68th Drive #B,665.0,1.0,2.0,Co-op,40.73109818,-73.82980347,Kew Gardens Hills,175000.0
99-48 211th Place,N/A,N/A,4.0,House,40.712934,-73.747286,Queens Village,499000.0
240-26 144th Avenue,N/A,N/A,4.0,Multi-family,40.661273,-73.741606,Rosedale,549000.0
143-60 110th Avenue,N/A,N/A,6.0,House,40.687462,-73.800134,South Jamaica,650000.0
238-39 149th Avenue,N/A,N/A,3.0,House,40.652595,-73.74471,Brookville,329000.0
117-16 231st Street,N/A,N/A,4.0,House,40.695457,-73.728893,Cambria Heights,299000.0
132 Beach 27th Street,N/A,N/A,5.0,Multi-family,40.5931015,-73.75959778,Far Rockaway,199000.0
260-01 Langston Avenue,N/A,1.0,1.0,House,40.664322,-73.746689,Glen Oaks Village,220900.0
159-21 Normal Rd,N/A,N/A,6.0,House,40.709655,-73.80468,Jamaica Hills,820000.0
78-54 76th Street,1200.0,N/A,3.0,House,40.7030983,-73.87310028,Glendale,729000.0
81-43 Woodhaven Boulevard,N/A,1.0,4.0,House,40.70439911,-73.85590363,Forest Hills,738888.0
96-14 67th Avenue,N/A,4.0,3.0,House,40.72265,-73.8562,Forest Hills,858000.0
16116 85th Street,2704.0,3.0,4.0,House,40.65420151,-73.84670258,Rockwood Park,769000.0
27-28 Thomson Avenue #604,1338.0,2.0,N/A,Condo,40.74570084,-73.94180298,Hunters Point,1725000.0
61-20 Grand Central Pkwy #A405,1350.0,2.0,3.0,Co-op,40.7378006,-73.84750366,Forest Hills,589000.0
58-34 79th Street,N/A,N/A,3.0,House,40.726,-73.88146,Middle Village,688000.0
80-23 Cowles Ct,N/A,N/A,3.0,House,40.71936,-73.87345,Middle Village,775000.0
64-14 70th Street,N/A,1.0,3.0,House,40.71557,-73.88441,Middle Village,678000.0
78-19 86th Street,N/A,N/A,2.0,Multi-family,40.70510101,-73.86299896,Glendale,688000.0
62-16 Cooper Avenue,1272.0,2.0,2.0,Multi-family,40.6977005,-73.89240265,Glendale,749000.0
85-66 67th Avenue,N/A,3.0,3.0,House,40.71774,-73.85996,Rego Park,858000.0
62-47 80 Rd,N/A,N/A,3.0,Multi-family,40.69520187,-73.88999939,Glendale,618000.0
85-58 66th Avenue,1258.0,2.0,3.0,House,40.718663,-73.862548,Rego Park,844000.0
111-33 Springfield Boulevard,1734.0,N/A,3.0,House,40.7057,-73.73925,Queens Village,450000.0
176-15 133rd Road,1699.0,2.0,3.0,House,40.67660141,-73.76470184,Springfield Gardens,450000.0
61-59 Austin Street,N/A,2.0,3.0,House,40.725386,-73.858953,Rego Park,738000.0
70-18 67th Street,1760.0,2.0,5.0,Multi-family,40.70399857,-73.88780212,Glendale,798000.0
27-28 Thomson Avenue #350,1901.0,2.5,2.0,Condo,40.74570084,-73.94180298,Hunters Point,2399000.0
34-48 86th Street,2600.0,3.5,5.0,House,40.75270081,-73.88140106,Jackson Heights,1675000.0
70-46 66 Place,2080.0,3.0,5.0,Multi-family,40.7030983,-73.88829803,Glendale,869000.0
82-40 61 Rd,N/A,N/A,4.0,Multi-family,40.712299,-73.883492,Middle Village,1100000.0
73-30 68th Avenue,N/A,2.0,3.0,Multi-family,40.71046,-73.8777,Glendale,828000.0
59-22 Madison Street,N/A,2.0,5.0,House,40.706183,-73.901203,Ridgewood,1090000.0
15830 87th Street,1850.0,2.0,3.0,House,40.65919876,-73.84580231,Rockwood Park,749000.0
51-79 74th Street,N/A,N/A,3.0,House,40.73389,-73.88809,Elmhurst,798000.0
139-47 182nd Street,N/A,3.0,4.0,House,40.6723,-73.76241,Springfield Gardens,499000.0
81-12 Margaret Place,1550.0,N/A,4.0,House,40.70470047,-73.85579681,Forest Hills,749000.0
71-62 71 Place,2920.0,3.0,7.0,Multi-family,40.70299911,-73.87989807,Glendale,1298000.0
63-13 83 Place,N/A,2.0,3.0,House,40.722835,-73.871589,Middle Village,748000.0
77-11 64 Place,N/A,2.0,N/A,House,40.69779968,-73.89080048,Glendale,775000.0
66-80 79 Place,N/A,N/A,7.0,Multi-family,40.71364,-73.87354,Middle Village,1358000.0
4-74 48th Avenue #31HJ,1560.0,2.0,3.0,Condop,40.74420166,-73.95680237,Hunters Point,1299000.0
209-48 112nd Avenue,N/A,3.0,3.0,House,40.7052002,-73.74539948,Queens Village,549000.0
108-25 72nd Avenue #4C,N/A,1.0,N/A,Co-op,40.72019958,-73.8423996,Forest Hills,299999.0
185-07 Dunlop Avenue,2200.0,1.0,2.0,Townhouse,40.70349884,-73.77100372,St. Albans,300000.0
228-19 114 Drive,N/A,2.5,5.0,House,40.70029831,-73.72869873,Cambria Heights,569000.0
98-120 Queens Boulevard #4B,850.0,1.0,1.0,Co-op,40.72679901,-73.85449982,Rego Park,299000.0
566 Fairview Avenue,3100.0,N/A,7.0,Multi-family,40.70769882,-73.90769958,Ridgewood,2000000.0
33-44 91st Street #4T,N/A,1.0,1.0,Co-op,40.75540161,-73.87729645,North Corona,229000.0
144-44 38th Avenue #2C,800.0,1.0,1.0,Co-op,40.76279831,-73.8207016,Flushing,279900.0
32-17 Linden Place,N/A,8.0,16.0,Multi-family,40.76729965,-73.83139801,Flushing,2900000.0
118-28 154th Street,N/A,3.0,3.0,House,40.68040085,-73.78869629,South Jamaica,399000.0
61-15 97th Street #14A,1150.0,2.0,2.0,Co-op,40.73389816,-73.86190033,Rego Park,495000.0
61-15 97th Street #8N,750.0,1.0,1.0,Co-op,40.73389816,-73.86190033,Rego Park,329900.0
243-64 72nd Avenue,N/A,N/A,6.0,Multi-family,40.74900055,-73.72969818,Little Neck,1498888.0
4-74 48th Avenue #12C,800.0,1.0,1.0,Condop,40.74420166,-73.95680237,Hunters Point,665000.0
10 Holder Place #3D,1525.0,2.0,3.0,Co-op,40.71829987,-73.84279633,Forest Hills,1490000.0
61-15 97th Street #6J,1150.0,2.0,2.0,Co-op,40.73389816,-73.86190033,Rego Park,495000.0
64-65 211st Street,4070.0,5.0,7.0,House,40.74290085,-73.7641983,Bayside,2588000.0
157-20 20th Road,N/A,5.0,7.0,Multi-family,40.77959824,-73.80529785,Flushing,1698888.0
83-16 Edgerton Boulevard,3461.0,N/A,6.0,House,40.71820068,-73.78859711,Jamaica Estates,1799000.0
103-39 91st Street,N/A,2.0,3.0,Multi-family,40.68019867,-73.84770203,Woodhaven,569000.0
88-10 35th Avenue #3B,N/A,1.0,1.0,Co-op,40.75220108,-73.87860107,Jackson Heights,265000.0
144-77 Roosevelt Avenue #5F,1176.0,2.0,2.0,Condo,40.76290131,-73.81960297,Murray Hill (Queens),748000.0
6 Roxbury Avenue,N/A,N/A,3.0,House,40.56650162,-73.89109802,Rockaway All,629000.0
141-44 183rd Street,N/A,2.0,3.0,House,40.66960144,-73.7609024,Springfield Gardens,459000.0
80-27 246th Street,1061.0,1.0,3.0,House,40.74100113,-73.72319794,Bellerose,629000.0
140-21 31 Rd #2E,950.0,1.0,2.0,Co-op,40.77109909,-73.82839966,Flushing,274900.0
1881 Putnam Avenue,N/A,6.0,12.0,Multi-family,40.70339966,-73.9036026,Ridgewood,1650000.0
10 Holder Place #3D,1525.0,2.0,3.0,Co-op,40.71829987,-73.84279633,Forest Hills,1490000.0
61-20 Grand Central Pkwy #A405,1350.0,2.0,3.0,Co-op,40.7378006,-73.84750366,Forest Hills,589000.0
79-68 77th Rd,1216.0,N/A,3.0,House,40.70589828,-73.86940002,Glendale,595000.0
65-40 108th Street St #4H,N/A,1.0,1.0,Co-op,40.73049927,-73.84870148,Forest Hills,289000.0
87-09 34th Avenue #1F,N/A,1.0,1.0,Co-op,40.75450134,-73.87999725,Jackson Heights,339000.0
175-08 93rd Avenue,N/A,N/A,3.0,House,40.70640182,-73.78479767,Jamaica,530000.0
33-45 90th Street #5G,N/A,1.0,1.0,Co-op,40.75550079,-73.87729645,North Corona,229000.0
116-30 126th Street,N/A,N/A,2.0,House,40.67610168,-73.8125,South Ozone Park,489000.0
24-39 38th Street #C10,900.0,1.0,2.0,Co-op,40.76839828,-73.91210175,Astoria,538000.0
139-09 84th Drive #510,1000.0,1.0,2.0,Co-op,40.71009827,-73.81749725,Briarwood,247000.0
73-55 210th Street #2K,N/A,1.0,1.0,Co-op,40.73830032,-73.76129913,Oakland Gardens,209000.0
31-35 31st Street #608,601.0,1.0,1.0,Condo,40.76330185,-73.92389679,Astoria,609000.0
59-18 Putnam Avenue,N/A,2.0,6.0,Multi-family,40.70510101,-73.90139771,Ridgewood,999723.0
49-07 167th Street,N/A,1.0,2.0,House,40.74860001,-73.80069733,East Flushing,738000.0
61-09 39th Avenue #5H,706.0,1.0,1.0,Condo,40.74729919,-73.90219879,Woodside,498000.0
34-48 86th Street,2600.0,3.5,5.0,House,40.75270081,-73.88140106,Jackson Heights,1675000.0
80-35 Springfield Boulevard #2G,1200.0,1.0,2.0,Co-op,40.73500061,-73.74569702,Bayside,328000.0
32-61 71st Street,N/A,3.0,7.0,Multi-family,40.75490189,-73.895401,Jackson Heights,1600000.0
77-12 24th Avenue,N/A,N/A,5.0,Multi-family,40.7643013,-73.8911972,Jackson Heights,950000.0
3226 Union Street #4D,N/A,2.0,2.0,Condo,40.7682991,-73.82700348,Flushing,630000.0
90-39 179th Street,N/A,N/A,3.0,House,40.70959854,-73.78279877,Jamaica,679000.0
56-11 197th Street,N/A,2.0,4.0,House,40.74560165,-73.77950287,Auburndale,935000.0
39-41 57th Street,2068.0,3.0,10.0,House,40.74689865,-73.90650177,Woodside,1498000.0
169-18 144th Rd,2605.0,N/A,3.0,House,40.66799927,-73.77030182,Springfield Gardens,399000.0
110-62 67 Rd,N/A,4.0,6.0,House,40.72940063,-73.84290314,Forest Hills,3300000.0
73-63 Bell Boulevard #4M,N/A,1.0,N/A,Co-op,40.73989868,-73.75730133,Oakland Gardens,149000.0
90-70 179th Place,N/A,N/A,6.0,Multi-family,40.70890045,-73.78209686,Jamaica,775000.0
59-38 163rd Street,N/A,3.0,5.0,Multi-family,40.73929977,-73.80580139,Flushing,1088888.0
21-10 44th Drive #3A,653.0,1.0,1.0,Condo,40.74779892,-73.9469986,Hunters Point,725000.0
27-21 44th Dr #2202,1263.0,2.0,3.0,Condo,40.7466011,-73.94159698,Hunters Point,1760000.0
33-29 110th Street,N/A,N/A,9.0,Multi-family,40.75699997,-73.85890198,North Corona,1690000.0
83-85 Woodhaven Boulevard #3U,N/A,1.0,3.0,Co-op,40.69940186,-73.8513031,Woodhaven,279000.0
33-25 90th Street #6G,N/A,1.0,1.0,Co-op,40.75550079,-73.87729645,North Corona,220000.0
110-37 63rd Rd,N/A,N/A,3.0,House,40.73559952,-73.84680176,Forest Hills,1350000.0
40-35 Ithaca Street #1B,N/A,1.0,1.0,Condo,40.74610138,-73.88210297,Elmhurst,478000.0
150-10 78th Avenue,N/A,N/A,4.0,Multi-family,40.72119904,-73.81359863,Kew Gardens Hills,1050000.0
176-20 Kildare Rd,N/A,N/A,3.0,House,40.7215004,-73.78939819,Fresh Meadows,1500000.0
75-15 182nd Street,1701.0,N/A,4.0,House,40.72949982,-73.78710175,Utopia,1095000.0
50-01 184th Street,N/A,N/A,2.0,House,40.74449921,-73.79229736,Auburndale,989900.0
108-07 Fern Place,N/A,1.0,3.0,House,40.70100021,-73.78050232,St. Albans,395000.0
87-10 51st Avenue #3Y,N/A,1.0,2.0,Co-op,40.73849869,-73.87599945,Elmhurst,450000.0
37-20 Prince Street #9B,600.0,1.0,2.0,Condo,40.7602005,-73.83309937,Flushing,649000.0
24-51 38th Street #B7,N/A,1.0,1.0,Co-op,40.76810074,-73.91230011,Astoria,499000.0
61-20 Grand Central Pkwy #A405,1350.0,2.0,3.0,Co-op,40.7378006,-73.84750366,Forest Hills,589000.0
251-27 Van Zandt Avenue,N/A,N/A,3.0,House,40.76549911,-73.7322998,Little Neck,1218000.0
89-58 212th Place,N/A,N/A,4.0,House,40.72259903,-73.7507019,Queens Village,565000.0
70-20 108th Street #10E,N/A,2.0,2.0,Co-op,40.72240067,-73.84490204,Forest Hills,970000.0
31-13 78th Street,1254.0,2.0,3.0,House,40.75839996,-73.88939667,Jackson Heights,779000.0
42-48 158th Street,N/A,6.0,6.0,Multi-family,40.75960159,-73.80819702,Queensboro Hill,1999000.0
124-10 15th Avenue,2060.0,2.0,6.0,Multi-family,40.78440094,-73.84349823,College Point,1249999.0
18-37 26th Avenue,2376.0,3.0,2.0,Multi-family,40.7737999,-73.92549896,Astoria,849000.0
106-49 Pinegrove Street,2500.0,N/A,5.0,House,40.69060135,-73.80560303,South Jamaica,579000.0
90-29 208th Street,2300.0,N/A,3.0,House,40.71820068,-73.75469971,Queens Village,499000.0
73-16 58th Avenue,2376.0,2.0,6.0,Multi-family,40.72600174,-73.88760376,Middle Village,1170000.0
23-20 Bell Boulevard #6J,N/A,1.0,1.0,Co-op,40.78160095,-73.77680206,Bay Terrace (Queens),280000.0
130-06 60th Avenue,N/A,6.0,8.0,Multi-family,40.7439003,-73.83560181,Flushing,1650000.0
4-74 48th Avenue #12C,800.0,1.0,1.0,Condop,40.74420166,-73.95680237,Hunters Point,665000.0
81-23 102nd Avenue,N/A,2.5,3.0,House,40.68050003,-73.85669708,Woodhaven,639000.0
105-24 64 Rd #1L,500.0,1.0,N/A,Co-op,40.73160172,-73.85040283,Forest Hills,199000.0
188-31 Mangin Avenue,N/A,2.0,3.0,House,40.70000076,-73.76660156,St. Albans,439000.0
110-11 177th Street,N/A,N/A,3.0,House,40.69789886,-73.77700043,St. Albans,449000.0
33-38 102th Street,2288.0,N/A,6.0,Multi-family,40.75640106,-73.86650085,North Corona,1400000.0
133-18 Denis Street,N/A,4.0,4.0,Multi-family,40.67720032,-73.7621994,Springfield Gardens,689999.0
90-35 53rd Avenue,N/A,N/A,5.0,House,40.73849869,-73.87239838,Elmhurst,1290000.0
32-67 37th Street,2090.0,3.0,6.0,Multi-family,40.75799942,-73.92179871,Long Island City,999900.0
84-20 Smedley Street,N/A,N/A,4.0,House,40.71289825,-73.81279755,Briarwood,738000.0
48-08 192nd Street,N/A,N/A,3.0,House,40.74940109,-73.78790283,Auburndale,2780000.0
314 Beach 84th Street,N/A,1.0,3.0,House,40.59090042,-73.80989838,Hammels,280000.0
108-35 66th Rd,N/A,N/A,4.0,House,40.73009872,-73.84660339,Forest Hills,2400000.0
181-52 Aberdeen Rd,4600.0,N/A,5.0,House,40.72259903,-73.78549957,Fresh Meadows,1759000.0
77-16 Austin Street #2G,1200.0,1.0,2.0,Co-op,40.71409988,-73.83540344,Forest Hills,475000.0
81-23 102nd Avenue,N/A,2.5,3.0,House,40.68050003,-73.85669708,Woodhaven,639000.0
181-52 Aberdeen Rd,4600.0,N/A,5.0,House,40.72259903,-73.78549957,Fresh Meadows,1759000.0
147-38 77th Avenue,N/A,N/A,3.0,House,40.72219849,-73.81569672,Kew Gardens Hills,899888.0
155-34 115th Dr,N/A,N/A,2.0,House,40.68470001,-73.78900146,South Jamaica,264900.0
43-53 Robinson Street,N/A,N/A,8.0,Multi-family,40.75400162,-73.81950378,East Flushing,1900000.0
86-10 151st Avenue #1B,N/A,1.0,1.0,Co-op,40.66790009,-73.84889984,Lindenwood,139999.0
2 Bay Club Dr #10Y,N/A,1.0,1.0,Condo,40.77830124,-73.78109741,Bay Terrace (Queens),549000.0
1 Bay Club Dr #19U,N/A,1.0,1.0,Condo,40.77830124,-73.78109741,Bay Terrace (Queens),562500.0
87-15 248th Street,N/A,2.0,3.0,House,40.72980118,-73.7173996,Bellerose,749000.0
216-21 135th Avenue,N/A,4.0,6.0,House,40.67860031,-73.75319672,Laurelton,775000.0
158-18 86th Street,N/A,2.0,5.0,House,40.65930176,-73.84680176,Rockwood Park,849999.0
159-22 96th Street,1178.0,2.0,3.0,House,40.65890121,-73.83719635,Old Howard Beach,489999.0
97-42 104th Street,N/A,2.0,3.0,Multi-family,40.68669891,-73.83950043,Woodhaven,200000.0
107-40 Queens Boulevard #9C,N/A,1.0,1.0,Co-op,40.72129822,-73.84500122,Forest Hills,430000.0
27-21 44th Dr #2202,1263.0,2.0,3.0,Condo,40.7466011,-73.94159698,Hunters Point,1760000.0
200-15 33rd Avenue,1050.0,2.0,3.0,House,40.76839828,-73.78790283,Clearview,708880.0
144-60 Gravett Rd #2B,N/A,1.0,1.0,Co-op,40.73509979,-73.82289886,Kew Gardens Hills,149000.0
90-02 209th Street,N/A,3.0,2.0,House,40.71900177,-73.75479889,Queens Village,489000.0
171-38 Ashby Avenue,N/A,N/A,3.0,House,40.75249863,-73.79319763,Auburndale,799000.0
116-11 219th Street,1344.0,1.0,3.0,House,40.69660187,-73.74009705,Cambria Heights,475000.0
166-59 25th Avenue,2322.0,N/A,5.0,House,40.7745018,-73.79599762,Clearview,1088000.0
39-65 52nd Street #10U,760.0,1.0,1.0,Co-op,40.74670029,-73.91200256,Woodside,320000.0
106-15 Queens Boulevard #1N,1200.0,1.0,2.0,Co-op,40.72290039,-73.84600067,Forest Hills,545000.0
35-30 73rd Street #5C,850.0,1.0,1.0,Co-op,40.75009918,-73.89320374,Jackson Heights,299000.0
147-01 Village Rd #29A,700.0,1.0,1.0,Co-op,40.71689987,-73.81300354,Kew Gardens Hills,159500.0
86-18 Kingston Place,3237.0,7.0,6.0,Multi-family,40.71319962,-73.79180145,Jamaica Estates,1399000.0
171-49 Ashby Avenue,N/A,5.0,5.0,Multi-family,40.75279999,-73.7928009,Auburndale,1280000.0
91-16 Shorefront Pkwy #2H,1187.0,2.0,2.0,Condo,40.58459854,-73.81340027,Hammels,529000.0
44-15 Purves Street #3C,696.0,1.0,1.0,Condo,40.74710083,-73.94100189,Hunters Point,898000.0
48-52 Oceania Street,N/A,N/A,3.0,House,40.75299835,-73.77149963,Bayside,1050000.0
22-26 73rd Street,1760.0,N/A,3.0,Multi-family,40.76739883,-73.89640045,East Elmhurst,1199000.0
64-86 Wetherole Street #2B,804.0,2.0,2.0,Condo,40.72650146,-73.85990143,Rego Park,674000.0
65-36 182nd Street,N/A,4.0,4.0,House,40.73590088,-73.79070282,Fresh Meadows,1450000.0
70-10 172nd Street,N/A,4.0,5.0,House,40.73109818,-73.79799652,Hillcrest,1438000.0
18-11 123rd Street #1B,550.0,1.0,1.0,Condo,40.78279877,-73.84470367,College Point,300000.0
242-15 88th Dr,1532.0,N/A,4.0,House,40.72869873,-73.72480011,Bellerose,599000.0
34-15 74th Street #5N,N/A,1.0,1.0,Co-op,40.75260162,-73.89189911,Jackson Heights,299000.0
78-05 81st Street,N/A,4.0,6.0,Multi-family,40.7052002,-73.86759949,Glendale,1299000.0
13-65 Eggert Place,2640.0,2.0,6.0,Multi-family,40.60810089,-73.7594986,Far Rockaway,650000.0
249-04 52nd Avenue,N/A,N/A,4.0,House,40.76229858,-73.73300171,Douglaston,1680000.0
130-27 220th Street,N/A,1.0,3.0,House,40.68349838,-73.74639893,Laurelton,469000.0
34-40 79th Street #1F,N/A,2.0,2.0,Co-op,40.7521019,-73.88790131,Jackson Heights,649000.0
140-50 Burden Crescent #5H,900.0,1.0,1.5,Co-op,40.71060181,-73.81659698,Briarwood,239000.0
251-34 Thornhill Avenue,N/A,N/A,4.0,House,40.76380157,-73.729599,Little Neck,1950000.0
91-02 50th Avenue,N/A,N/A,6.0,Multi-family,40.74020004,-73.87329865,Elmhurst,1100000.0
169-05 21st Avenue,N/A,N/A,4.0,House,40.77859879,-73.79460144,Clearview,1690000.0
240-27 67th Avenue,N/A,N/A,4.0,House,40.75170135,-73.73899841,Little Neck,858000.0
47-18 210th Street,N/A,N/A,3.0,House,40.75529861,-73.77189636,Bayside,849000.0
110-14 15th Avenue,N/A,4.0,8.0,Multi-family,40.78350067,-73.85620117,College Point,3980000.0
73-55 210th Street #3J,900.0,1.0,2.0,Co-op,40.73830032,-73.76129913,Oakland Gardens,323888.0
110-11 Queens Boulevard #12M,N/A,1.0,1.0,Co-op,40.72019958,-73.83959961,Forest Hills,419000.0
101-16 111th Street,N/A,3.0,4.0,House,40.68740082,-73.83270264,Richmond Hill,525000.0
23-35 206th Street,N/A,3.0,4.0,House,40.77709961,-73.78690338,Clearview,1580000.0
102-36 64th Avenue #6J,N/A,1.0,1.0,Co-op,40.73180008,-73.85209656,Forest Hills,220000.0
30-13 85th Street,N/A,N/A,8.0,Multi-family,40.76100159,-73.88339996,Jackson Heights,1180000.0
61-09 39th Avenue #5H,706.0,1.0,1.0,Condo,40.74729919,-73.90219879,Woodside,498000.0
27-21 44th Dr #2203,648.0,1.0,1.0,Condo,40.7466011,-73.94159698,Hunters Point,890000.0
23-16 Healy Avenue,N/A,4.0,7.0,Multi-family,40.60549927,-73.7594986,Bayswater,579000.0
45-12 163rd Street,N/A,2.0,3.0,House,40.75590134,-73.80390167,Queensboro Hill,850000.0
108-16 221st Street,N/A,2.0,3.0,House,40.70819855,-73.73509979,Queens Village,499000.0
103-18 Plattwood Avenue,N/A,3.0,4.0,Multi-family,40.67829895,-73.83509827,South Ozone Park,520000.0
12-19 119th Street,N/A,N/A,5.0,House,40.78699875,-73.84950256,College Point,880000.0
97-25 127th Street,N/A,2.0,4.0,House,40.69240189,-73.81909943,Richmond Hill,579000.0
181-27 Kruger Rd,2360.0,N/A,5.0,House,40.71730042,-73.78240204,Jamaica Estates,1688000.0
18-75 Corporal Kennedy Street #1J,N/A,1.0,1.0,Co-op,40.77949905,-73.78230286,Bay Terrace (Queens),219000.0
14-43 28th Avenue #3F,400.0,1.0,1.0,Condo,40.77159882,-73.92739868,Astoria,474000.0
83-15 98th Street #5F,N/A,1.0,2.0,Co-op,40.70019913,-73.85240173,Woodhaven,249000.0
26-10 Union Street #2G,1000.0,1.0,2.0,Co-op,40.77460098,-73.82720184,Flushing,328000.0
66-92 Selfridge Street #6E,N/A,1.0,1.0,Co-op,40.71680069,-73.8572998,Forest Hills,199000.0
24-51 38th Street #B7,N/A,1.0,1.0,Co-op,40.76810074,-73.91230011,Astoria,499000.0
116-41 227th Street,N/A,2.0,3.0,House,40.69369888,-73.73349762,Cambria Heights,515000.0
105-35 134th Street,N/A,2.0,5.0,House,40.68920135,-73.81140137,Richmond Hill,599999.0
107-24 71 #7E,1263.0,2.0,2.0,Condo,40.72079849,-73.84390259,Forest Hills,1199000.0
33-45 162nd Street,N/A,N/A,5.0,House,40.76660156,-73.80280304,Murray Hill (Queens),2650000.0
32-15 Jordan Street,N/A,2.0,3.0,House,40.76910019,-73.78970337,Clearview,615000.0
34-42 60th Street,2472.0,N/A,7.0,Multi-family,40.7507019,-73.90239716,Woodside,1488000.0
111-23 123rd Street,N/A,N/A,2.0,House,40.68090057,-73.81719971,Richmond Hill,539000.0
162-01 Powells Cove Boulevard #5E,1150.0,1.0,2.0,Co-op,40.79510117,-73.79930115,Beechhurst,340000.0
119-02 234th Street,N/A,3.0,4.0,House,40.68799973,-73.72989655,Cambria Heights,575000.0
138-15 Franklin Avenue #529,900.0,1.0,2.0,Co-op,40.75519943,-73.82620239,Flushing,399000.0
27-50 Mcintosh Street,N/A,3.0,5.0,Multi-family,40.76200104,-73.86769867,East Elmhurst,1390000.0
180-07 90th Avenue,N/A,N/A,6.0,Multi-family,40.71120071,-73.78150177,Hollis,1130000.0
99-40 63rd Rd #11B,N/A,1.0,2.0,Co-op,40.7322998,-73.85549927,Rego Park,279000.0
107-40 Queens Boulevard #4D,N/A,1.0,1.0,Co-op,40.72129822,-73.84500122,Forest Hills,399000.0
140-50 Burden Crescent #5H,900.0,1.0,1.5,Co-op,40.71060181,-73.81659698,Briarwood,239000.0
152-12 12th Rd,3776.0,4.0,4.0,House,40.79059982,-73.80950165,Whitestone,2288000.0
114-17 101st Avenue,N/A,N/A,4.0,Multi-family,40.68909836,-73.82959747,Richmond Hill,1250000.0
84-15 94th Street,N/A,N/A,5.0,House,40.69720078,-73.85169983,Woodhaven,658888.0
150-38 122nd Avenue,N/A,N/A,4.0,House,40.67679977,-73.78929901,South Jamaica,669000.0
42-37 209th Street,N/A,N/A,6.0,Multi-family,40.76070023,-73.77519989,Bayside,1599000.0
259-11 Francis Lewis Boulevard,N/A,3.0,6.0,Multi-family,40.65670013,-73.72769928,Rosedale,850000.0
175-20 Wexford Ter #7R,N/A,1.0,1.0,Co-op,40.71229935,-73.78749847,Jamaica Estates,135000.0
71-59 160th Street #5A,780.0,2.0,2.0,Condo,40.72840118,-73.80889893,Pomonok,575000.0
21-27 33rd Street #5G,750.0,1.0,2.0,Co-op,40.77600098,-73.90809631,Astoria,355000.0
81-20 165th Street,N/A,3.0,3.0,House,40.72029877,-73.80220032,Jamaica Hills,829000.0
240-57 66th Avenue,N/A,N/A,3.0,House,40.75270081,-73.73739624,Little Neck,829000.0
23-39 95th Street,N/A,2.0,4.0,House,40.76710129,-73.87470245,East Elmhurst,785000.0
107-40 Queens Boulevard #4D,N/A,1.0,1.0,Co-op,40.72129822,-73.84500122,Forest Hills,399000.0
4-74 48th Avenue #PH2E,1005.0,2.0,2.0,Condop,40.74420166,-73.95680237,Hunters Point,890000.0
137-11 32nd Avenue #8E,1060.0,2.0,3.0,Condo,40.7682991,-73.83059692,Flushing,768000.0
92-45 55th Avenue,N/A,N/A,5.0,House,40.73789978,-73.8687973,Elmhurst,1399000.0
144-59 87th Avenue,N/A,4.0,6.0,Multi-family,40.70750046,-73.81009674,Briarwood,1199000.0
217-41 Stewart Rd,1494.0,N/A,4.0,House,40.73559952,-73.75409698,Bayside,949000.0
64-05 Yellowstone Boulevard #513,1533.0,2.0,3.0,Condo,40.73220062,-73.85179901,Forest Hills,1295000.0
77-14 173rd Street,N/A,2.0,3.0,House,40.72499847,-73.7963028,Hillcrest,1089000.0
88-12 97th Avenue,N/A,2.0,3.0,Multi-family,40.68420029,-73.85220337,Woodhaven,799777.0
91-28 Winchester Boulevard,N/A,2.0,4.0,House,40.72650146,-73.73739624,Queens Village,525000.0
22-12 119th Street,1200.0,1.0,3.0,House,40.77959824,-73.84940338,College Point,120000.0
84-55 Parsons Boulevard,2334.0,4.0,8.0,Multi-family,40.71269989,-73.8062973,Jamaica Hills,949000.0
24-51 24th Street,N/A,4.0,4.0,Multi-family,40.77420044,-73.92099762,Astoria,1650000.0
46-24 Overbrook Street,N/A,N/A,4.0,House,40.76330185,-73.74069977,Little Neck,1680000.0
45-02 Ditmars Boulevard #418,698.0,1.0,1.0,Condo,40.77000046,-73.9036026,Astoria,610000.0
140-50 Burden Crescent #5H,900.0,1.0,1.5,Co-op,40.71060181,-73.81659698,Briarwood,239000.0
114-49 130th Street,N/A,2.0,3.0,House,40.68000031,-73.81079865,South Ozone Park,539000.0
149-46 16th Rd,N/A,N/A,3.0,House,40.78480148,-73.81469727,Flushing,918000.0
111-35 122nd Street,N/A,2.0,3.0,House,40.68040085,-73.81800079,Richmond Hill,514000.0
216-09 118th Avenue,N/A,2.0,3.0,House,40.69459915,-73.74359894,Cambria Heights,449000.0
86-16 60th Avenue #6J,800.0,1.0,1.0,Co-op,40.73049927,-73.87339783,Middle Village,190000.0
82-65 165th Street,2000.0,N/A,3.0,House,40.71780014,-73.8010025,Jamaica Hills,829000.0
144-21 South Dr,N/A,N/A,4.0,House,40.7901001,-73.82530212,Malba,2800000.0
136-20 Whitelaw Street,N/A,3.0,4.0,Multi-family,40.67259979,-73.84619904,Ozone Park,629000.0
105-20 Ditmars Boulevard,N/A,4.0,6.0,Multi-family,40.76620102,-73.86499786,East Elmhurst,1399000.0
112-11 209th Street,N/A,2.0,4.0,House,40.70460129,-73.74680328,Queens Village,479000.0
95-08 121st Street,N/A,3.0,5.0,Multi-family,40.69269943,-73.82520294,Richmond Hill,790000.0
47-52 189th Street,N/A,5.0,6.0,Multi-family,40.74940109,-73.7901001,Auburndale,1768000.0
61-09 39th Avenue #5H,706.0,1.0,1.0,Condo,40.74729919,-73.90219879,Woodside,498000.0
4-74 48th Avenue #27F,863.0,1.0,1.0,Condop,40.7445,-73.9565,Hunters Point,648000.0
110-11 Queens Boulevard #21K,N/A,2.0,2.0,Co-op,40.72019958,-73.83959961,Forest Hills,659000.0
64-11 99th Street #615,1350.0,2.0,3.0,Co-op,40.73070145,-73.85569763,Rego Park,698000.0
138-70 Elder Avenue #2N,N/A,1.0,2.0,Co-op,40.75260162,-73.82189941,Flushing,329000.0
36-32 212th Street,N/A,3.0,5.0,House,40.76649857,-73.77480316,Bayside,1288000.0
75-19 67 Dr,2531.0,4.0,6.0,Multi-family,40.71170044,-73.87670135,Glendale,1090000.0
107-24 71 Rd #14C,1490.0,3.0,3.0,Condo,40.72079849,-73.84390259,Forest Hills,1688000.0
518 128th Street,N/A,3.0,5.0,Multi-family,40.79190063,-73.84010315,College Point,1015000.0
102-04 163rd Rd,N/A,1.0,2.0,House,40.65299988,-73.82929993,Hamilton Beach,224900.0
105-48 134th Street,1512.0,N/A,3.0,House,40.68870163,-73.81159973,Richmond Hill,519000.0
108-20 71 #PH1A,1495.0,N/A,2.0,Condo,40.7215004,-73.84290314,Forest Hills,1788000.0
119-23 196th Street,N/A,N/A,3.0,House,40.69010162,-73.75409698,St. Albans,449000.0
194-09 112th Rd,1532.0,2.0,4.0,Multi-family,40.70080185,-73.76110077,St. Albans,490000.0
27-21 44th Dr #2203,648.0,1.0,1.0,Condo,40.7466011,-73.94159698,Hunters Point,890000.0
25-26 78th Street,1723.0,2.0,3.0,Multi-family,40.76190186,-73.89060211,Jackson Heights,500000.0
116-24 200th Street,N/A,2.0,4.0,Multi-family,40.69520187,-73.75279999,St. Albans,599900.0
65-11 Admiral Avenue,N/A,2.0,5.0,Multi-family,40.71149826,-73.89550018,Glendale,899000.0
26-15 Parsons Boulevard #4C,N/A,1.0,2.0,Co-op,40.77410126,-73.82430267,Queensboro Hill,249888.0
23-11 21st Avenue #1G,1129.0,2.0,2.0,Condo,40.78150177,-73.91300201,Astoria,1080000.0
220-04 138th Rd,N/A,2.0,3.0,House,40.67300034,-73.75229645,Laurelton,650000.0
223-10 113th Dr,N/A,3.0,5.0,House,40.70220184,-73.73390198,Cambria Heights,528888.0
42-03 247th Street,1080.0,1.0,3.0,House,40.77030182,-73.74189758,Little Neck,688800.0
208-07 Estates Dr #130M,N/A,2.0,2.0,Condo,40.78749847,-73.78579712,Bay Terrace (Queens),649000.0
211-01 75th Avenue #3O,N/A,1.0,1.0,Co-op,40.73830032,-73.76129913,Oakland Gardens,190888.0
113-16 Dunkirk Street,N/A,N/A,3.0,House,40.69670105,-73.76950073,St. Albans,389000.0
141-18 247th Street,N/A,2.0,4.0,House,40.66279984,-73.7365036,Rosedale,398000.0
144-41 78th Avenue,N/A,N/A,3.0,House,40.72069931,-73.81700134,Kew Gardens Hills,899000.0
21-10 44th Drive #3A,653.0,1.0,1.0,Condo,40.74779892,-73.9469986,Hunters Point,725000.0
4-74 48th Avenue #12C,800.0,1.0,1.0,Condop,40.74420166,-73.95680237,Hunters Point,665000.0
79-28 68th Avenue,N/A,3.0,7.0,Multi-family,40.71110153,-73.87239838,Glendale,1150000.0
58-07 70th Avenue,N/A,4.0,5.0,Multi-family,40.70100021,-73.90149689,Ridgewood,1580000.0
41-32 Morgan Street,N/A,N/A,5.0,House,40.77349854,-73.73809814,Little Neck,1598000.0
147-19 230th Street,N/A,5.0,6.0,Multi-family,40.65729904,-73.75219727,Brookville,779999.0
150-17 Grand Central Pky #101B,N/A,1.0,2.0,Co-op,0.0,0.0,Kew Gardens Hills,214900.0
90-11 Northern Boulevard #307,700.0,1.0,1.0,Co-op,40.75749969,-73.87770081,North Corona,220000.0
218-12 118th Avenue,N/A,3.0,5.0,Multi-family,40.69380188,-73.74250031,Cambria Heights,750000.0
133-11 131st Street,1216.0,N/A,3.0,House,40.66899872,-73.80760193,South Ozone Park,455000.0
18-40 211st Street #2D,N/A,1.0,3.0,Co-op,40.78030014,-73.7818985,Bay Terrace (Queens),259000.0
32-45 88th Street #410,700.0,1.0,1.0,Co-op,40.75730133,-73.87950134,Jackson Heights,220000.0
223-04 147th Avenue,N/A,4.0,6.0,Multi-family,40.6590004,-73.75830078,Brookville,850000.0
220-53 73rd Avenue #1A,N/A,1.0,1.0,Co-op,40.74269867,-73.75579834,Oakland Gardens,226000.0
21-10 44th Drive #3A,653.0,1.0,1.0,Condo,40.74779892,-73.9469986,Hunters Point,725000.0
61-20 Grand Central Pkwy #A405,1350.0,2.0,3.0,Co-op,40.7378006,-73.84750366,Forest Hills,589000.0
153-22 83rd Street #6DU,N/A,1.0,2.0,Condo,40.6651001,-73.85150146,Lindenwood,382000.0
115-23 147th Street,N/A,N/A,3.0,House,40.68320084,-73.79489899,South Jamaica,539000.0
242-09A Oak Park Dr #123A,1576.0,3.0,3.0,Condo,40.7466011,-73.73110199,Little Neck,765000.0
164-11 108th Avenue,N/A,1.0,3.0,House,40.69729996,-73.7901001,South Jamaica,349000.0
188-29 Keeseville Avenue,1408.0,3.0,4.0,House,40.69950104,-73.76580048,St. Albans,359900.0
53-11 90th Street #6M,843.0,1.0,1.0,Condo,40.73789978,-73.87310028,Elmhurst,525000.0
118-10 230th Street,4000.0,2.0,4.0,House,40.69070053,-73.73269653,Cambria Heights,500000.0
23-11 98th Street,1044.0,1.0,3.0,House,40.76819992,-73.87210083,East Elmhurst,274900.0
141-20 Jewel Avenue,N/A,3.0,5.0,Multi-family,40.729599,-73.8239975,Kew Gardens Hills,998000.0
153-46 77th Avenue,N/A,N/A,7.0,Multi-family,40.7234993,-73.81089783,Kew Gardens Hills,1499888.0
65-53 Booth Street,N/A,N/A,8.0,Multi-family,40.72689819,-73.85820007,Rego Park,2100000.0
177-47 106th Avenue,N/A,2.0,6.0,Multi-family,40.70370102,-73.77940369,St. Albans,638000.0
34-48 86th Street,2600.0,3.5,5.0,House,40.75270081,-73.88140106,Jackson Heights,1675000.0
27-21 44th Dr #2203,648.0,1.0,1.0,Condo,40.7466011,-73.94159698,Hunters Point,890000.0
197-01 Dunton Avenue #2D,N/A,1.0,2.0,Co-op,40.71989822,-73.76679993,Jamaica Estates,209900.0
153-54 77th Avenue,N/A,N/A,7.0,Multi-family,40.7234993,-73.81069946,Kew Gardens Hills,1499888.0
134-54 Maple Avenue #2H,735.0,1.0,1.0,Co-op,40.75460052,-73.82839966,Flushing,359000.0
32-25 90th Street #507,N/A,1.0,1.0,Co-op,40.75740051,-73.87770081,North Corona,209000.0
24-32 Beach Channel Dr,N/A,N/A,3.0,Multi-family,40.60100174,-73.76170349,Far Rockaway,469000.0
24-35 92nd Street,1782.0,2.0,4.0,House,40.76490021,-73.87740326,East Elmhurst,728888.0
137-22 Kalmia Avenue,N/A,3.0,4.0,Multi-family,40.74860001,-73.81970215,Flushing,1350000.0
92-12 91st Avenue,N/A,2.0,7.0,Multi-family,40.68939972,-73.85089874,Woodhaven,734999.0
97-30 77th Street,N/A,2.0,7.0,Multi-family,40.68099976,-73.86109924,Woodhaven,850000.0
212-07 75th Avenue #1L,N/A,1.0,1.0,Co-op,40.73830032,-73.76129913,Bayside,210000.0
103-18 Martense Avenue,1098.0,2.0,3.0,Multi-family,40.74060059,-73.85569763,Corona,609900.0
35-26 169th Street,N/A,N/A,5.0,Multi-family,40.76409912,-73.79720306,Murray Hill (Queens),1298888.0
107-52 110th Street,N/A,2.5,3.0,House,40.68069839,-73.83049774,Richmond Hill,599995.0
81-14 Queens Boulevard #5A,1020.0,2.0,2.0,Condo,40.737222,-73.881749,Elmhurst,750000.0
105-18 63rd Avenue,1836.0,3.0,4.0,House,40.73429871,-73.85209656,Forest Hills,919888.0
87-31 116th Street,N/A,N/A,5.0,House,40.69829941,-73.83280182,Richmond Hill,643900.0
113-51 212th Street,2640.0,2.0,4.0,Multi-family,40.70330048,-73.74310303,Queens Village,480000.0
35-21 86th Street,N/A,N/A,8.0,Multi-family,40.75149918,-73.88069916,Jackson Heights,1999000.0
10 Willow Avenue,3000.0,N/A,4.0,House,40.76959991,-73.74900055,Little Neck,549000.0
43-12 203rd Street,N/A,N/A,3.0,House,40.7582016,-73.7806015,Auburndale,800000.0
253-27 148th Dr,3500.0,5.0,6.0,Multi-family,40.65399933,-73.7358017,Rosedale,780000.0
148-09 90th Avenue,2100.0,3.0,7.0,Multi-family,40.70360184,-73.80690002,Jamaica,1199000.0
151-48 133rd Avenue,N/A,N/A,3.0,House,40.66939926,-73.78510284,Springfield Gardens,539000.0
84-49 168th Street #6D,N/A,1.0,1.0,Co-op,40.71469879,-73.79660034,Jamaica Hills,117900.0
92-27 Springfield Boulevard,1930.0,3.0,4.0,House,40.72409821,-73.73819733,Queens Village,569000.0
24-13 33rd Street,N/A,3.0,4.0,Multi-family,40.77109909,-73.91459656,Astoria,1400000.0
61-09 39th Avenue #5H,706.0,1.0,1.0,Condo,40.74729919,-73.90219879,Woodside,498000.0
116-41 227th Street,N/A,2.0,3.0,House,40.69369888,-73.73349762,Cambria Heights,515000.0
131-35 134th Street,N/A,N/A,2.0,House,40.66939926,-73.80449677,South Ozone Park,470000.0
21-49 45th Street,3025.0,N/A,6.0,Multi-family,40.77149963,-73.90200043,Astoria,1638888.0
65-20 Jay Avenue,N/A,N/A,6.0,Multi-family,40.72679901,-73.89949799,Elmhurst,1095000.0
88-11 Elmhurst Avenue #A11,1300.0,1.0,4.0,Co-op,40.74599838,-73.87799835,Elmhurst,479000.0
42-30 Douglaston Pky #6E,N/A,1.0,1.0,Co-op,40.76789856,-73.74749756,Douglaston,265000.0
87-59 112th Street,N/A,2.0,4.0,Multi-family,40.69589996,-73.83540344,Richmond Hill,879000.0
159-11 88th Avenue,N/A,2.0,4.0,Multi-family,40.70709991,-73.80190277,Jamaica,729000.0
68-16 65th Place,N/A,2.0,3.0,House,40.70589828,-73.89179993,Glendale,739000.0
103-17 Remington Street,N/A,3.0,4.0,Multi-family,40.69189835,-73.80909729,South Jamaica,650000.0
14-44 31st Dr,1680.0,N/A,6.0,Multi-family,40.76620102,-73.93170166,Astoria,1550000.0
63-15 Forest Avenue #1C,449.0,1.0,1.0,Condo,40.71039963,-73.90460205,Ridgewood,495000.0
5128 30th Avenue #2E,N/A,1.0,1.0,Co-op,40.75830078,-73.90599823,Woodside,300000.0
91-16 Shorefront Pkwy #2H,1187.0,2.0,2.0,Condo,40.58459854,-73.81340027,Hammels,529000.0
86-10 34th Avenue #116,950.0,1.0,2.0,Co-op,40.75389862,-73.88079834,Jackson Heights,575000.0
99-45 60th Avenue #4A,N/A,1.0,1.0,Co-op,40.73720169,-73.85769653,Corona,175000.0
120-28 Riviera Ct #26A,2039.0,N/A,3.0,Condo,40.79520035,-73.84750366,College Point,868000.0
47-09 188th Street,1408.0,N/A,3.0,House,40.75040054,-73.79090118,Auburndale,798000.0
173-43 104th Avenue,2500.0,3.0,3.0,House,40.70389938,-73.78289795,St. Albans,430000.0
110-20 71st Avenue #107,381.0,1.0,N/A,Co-op,40.72240067,-73.84059906,Forest Hills,179000.0
14-28 Waters Edge Dr,N/A,N/A,6.0,Multi-family,40.78760147,-73.77829742,Bay Terrace (Queens),1388000.0
16345 Cross Bay Boulevard,N/A,N/A,3.0,House,40.65110016,-73.83740234,Old Howard Beach,145000.0
220-06 46th Avenue,2040.0,N/A,5.0,House,40.75960159,-73.7609024,Bayside,1398000.0
61-20 Grand Central Pky #A1505,1450.0,2.0,3.0,Co-op,40.7378006,-73.84750366,Forest Hills,599000.0
32-31 80th Street,N/A,N/A,3.0,House,40.75650024,-73.88729858,Jackson Heights,849000.0
177-22 106th Rd Rd,1600.0,3.0,6.0,Multi-family,40.70240021,-73.77960205,St. Albans,728000.0
140-20 180th Street,N/A,N/A,9.0,Multi-family,40.67100143,-73.76399994,Springfield Gardens,999000.0
86-10 34th Avenue #116,950.0,1.0,2.0,Co-op,40.75389862,-73.88079834,Jackson Heights,575000.0
81-14 Queens Boulevard #5A,1020.0,2.0,2.0,Condo,40.737222,-73.881749,Elmhurst,750000.0
137-34 70th Avenue,N/A,2.0,4.0,Multi-family,40.72809982,-73.82689667,Kew Gardens Hills,1200000.0
94-25 77th Street,N/A,2.0,3.0,House,40.68349838,-73.86190033,Woodhaven,570000.0
104-60 117th Street,N/A,N/A,4.0,Multi-family,40.68420029,-73.82530212,Richmond Hill,795000.0
16918 81st Avenue,N/A,3.0,5.0,House,40.72180176,-73.79799652,Jamaica Hills,998000.0
166-40 24th Rd,N/A,2.0,3.0,Multi-family,40.77479935,-73.79669952,Clearview,890000.0
134-26 241st Street,N/A,3.0,4.0,Multi-family,40.67300034,-73.73339844,Rosedale,629000.0
53-46 82nd Street,N/A,3.0,7.0,Multi-family,40.73130035,-73.88359833,Elmhurst,1380000.0
43-55 Kissena Boulevard #2C,1300.0,1.0,2.0,Co-op,40.75439835,-73.82289886,East Flushing,410888.0
75-81 177th Street,N/A,2.0,3.0,House,40.72650146,-73.79070282,Utopia,988888.0
34-10 94th Street #5D,925.0,1.0,2.0,Co-op,40.75439835,-73.8742981,North Corona,339000.0
80-06 47th Avenue #2,1200.0,2.0,2.0,Condo,40.74020004,-73.88459778,Elmhurst,598000.0
116-27 166th Street,3000.0,3.0,7.0,Multi-family,40.68610001,-73.78079987,South Jamaica,729000.0
21-10 44th Drive #3A,653.0,1.0,1.0,Condo,40.74779892,-73.9469986,Hunters Point,725000.0
27-21 44th Dr #2202,1263.0,2.0,3.0,Condo,40.7466011,-73.94159698,Hunters Point,1760000.0
33-34 9th Street,N/A,3.0,6.0,Multi-family,40.76599884,-73.93920135,Long Island City,3500000.0
99-72 66 Rd #3V,N/A,1.0,3.0,Co-op,40.72769928,-73.85289764,Rego Park,470000.0
67-40 Yellowstone Boulevard #2B,900.0,1.0,2.0,Co-op,40.72729874,-73.84940338,Forest Hills,409000.0
143-15 Glassboro Avenue,N/A,2.0,3.0,House,40.68740082,-73.80180359,South Jamaica,440000.0
151-31 88th #5B,N/A,1.0,2.0,Co-op,40.667099,-73.8470993,Lindenwood,129999.0
29-16 211th Street,N/A,N/A,3.0,House,40.77399826,-73.77799988,Bayside,1089000.0
216-03 115th Ter,1285.0,1.0,2.0,House,40.70029831,-73.74160004,Cambria Heights,399000.0
115-44 227th Street,1285.0,2.0,2.0,House,40.69720078,-73.7322998,Cambria Heights,449000.0
86-10 109th Street #C4,N/A,1.0,1.0,Co-op,40.69779968,-73.83989716,Woodhaven,170000.0
173-07 Grand Central Pky,N/A,N/A,4.0,House,40.71979904,-73.79239655,Jamaica Hills,999999.0
108-53 38th Avenue,N/A,3.0,6.0,Multi-family,40.75310135,-73.85780334,North Corona,1300000.0
116-45 126th Street,N/A,N/A,2.0,House,40.67580032,-73.81169891,South Ozone Park,339000.0
4-74 48th Avenue #31HJ,1560.0,2.0,3.0,Condop,40.74420166,-73.95680237,Hunters Point,1299000.0
27-21 44th Dr #2202,1263.0,2.0,3.0,Condo,40.7466011,-73.94159698,Hunters Point,1760000.0
89-37 Metropolitan Avenue,N/A,2.0,3.0,House,40.71210098,-73.86070251,Rego Park,710000.0
40-28 College Point Boulevard #1702,1070.0,2.0,2.0,Condo,40.75880051,-73.83409882,Flushing,1099000.0
105-02 171 Place,2000.0,N/A,3.0,House,40.70190048,-73.78579712,St. Albans,489999.0
40-05 Ithaca Street #4F,N/A,1.0,N/A,Co-op,40.74639893,-73.88300323,Elmhurst,159000.0
8213 164 Place,N/A,1.0,2.0,House,40.71910095,-73.80239868,Jamaica Hills,588000.0
111-61 43rd Avenue,N/A,2.0,6.0,Multi-family,40.75030136,-73.85269928,Corona,989000.0
65-50 Wetherole Street #4M,N/A,1.0,2.0,Condo,40.72570038,-73.85890198,Rego Park,699000.0
8616 60th Avenue #5A,N/A,1.0,1.0,Co-op,40.73049927,-73.87339783,Middle Village,185000.0
160-11 78th Rd,N/A,1.0,3.0,House,40.7220993,-73.80729675,Pomonok,799000.0
87-22 124th Street,3800.0,3.0,4.0,Multi-family,40.70009995,-73.82649994,Richmond Hill,730000.0
78-14 Austin Street #4F,N/A,1.0,2.0,Co-op,40.71310043,-73.834198,Forest Hills,399000.0
132-18 41st Avenue #8A,1340.0,2.0,2.0,Condo,40.75630188,-73.83309937,Flushing,1090000.0
44-15 Purves #5A,965.0,2.0,2.0,Condo,40.74710083,-73.94100189,Hunters Point,1195000.0
24-51 38th Street #B7,N/A,1.0,1.0,Co-op,40.76810074,-73.91230011,Astoria,499000.0
149-52 Cherry Avenue,1010.0,N/A,4.0,Multi-family,40.75839996,-73.81210327,Flushing,1490000.0
214-04 113th Avenue,1672.0,1.0,3.0,House,40.70420074,-73.74220276,Queens Village,429000.0
211-08 99th Avenue,N/A,2.0,5.0,Multi-family,40.71390152,-73.74829865,Queens Village,399000.0
64-25 Palmetto Street,3300.0,3.0,5.0,Multi-family,40.70940018,-73.89499664,Glendale,998000.0
42-42 Union Street #PENTC,635.0,1.0,1.0,Condo,40.75659943,-73.82450104,East Flushing,638000.0
33-45 90th Street #5J,1000.0,1.0,2.0,Co-op,40.75550079,-73.87729645,North Corona,289000.0
196-48 69th Avenue #2,N/A,1.0,1.0,Co-op,40.73630142,-73.77629852,Fresh Meadows,259000.0
134-43 160th Street,N/A,4.0,5.0,Multi-family,40.67160034,-73.77639771,Springfield Gardens,589000.0
132-29 Blossom Avenue #2A,N/A,2.0,2.0,Condo,40.75220108,-73.83129883,Flushing,599000.0
169-08 Grand Central Pky,N/A,N/A,6.0,Multi-family,40.71760178,-73.7960968,Jamaica Hills,899000.0
254-25 37th Avenue,N/A,N/A,4.0,House,40.77690125,-73.74220276,Little Neck,1680000.0
108-15 68th Dr,N/A,N/A,5.0,House,40.72600174,-73.84539795,Forest Hills,3490000.0
116-41 227th Street,N/A,2.0,3.0,House,40.69369888,-73.73349762,Cambria Heights,515000.0
44-15 Purves Street #3C,696.0,1.0,1.0,Condo,40.74710083,-73.94100189,Hunters Point,898000.0
143-26 41st Avenue #7B,1080.0,2.0,2.0,Condo,40.75989914,-73.82289886,Queensboro Hill,829000.0
229-14 64th Avenue,1650.0,2.0,4.0,House,40.74919891,-73.74810028,Bayside,988000.0
213-10 64th Avenue,N/A,2.0,3.0,House,40.74509811,-73.76290131,Bayside,1280000.0
164-18 Goethals Avenue,N/A,N/A,3.0,House,40.71920013,-73.80310059,Jamaica Hills,749000.0
99-32 66 Rd #5S,N/A,1.0,1.0,Co-op,40.72769928,-73.85289764,Rego Park,259000.0
41-31 68th Street,4000.0,2.0,7.0,Multi-family,40.74369812,-73.89649963,Woodside,2080000.0
104-19 122nd Street,2500.0,N/A,6.0,Multi-family,40.6867981,-73.82109833,Richmond Hill,979777.0
60-75 67th Avenue,N/A,3.0,5.0,Multi-family,40.70560074,-73.89759827,Ridgewood,1087800.0
123-61 146th Street,N/A,2.0,4.0,Multi-family,40.6739006,-73.79149628,South Jamaica,547777.0
131-15 11th Avenue,N/A,N/A,5.0,Multi-family,40.78779984,-73.83709717,College Point,1088000.0
237-34 Fairbury Avenue,N/A,1.0,4.0,House,40.72470093,-73.72910309,Queens Village,699000.0
166-26 Powells Cove Boulevard #9C,N/A,1.0,2.0,Co-op,40.79359818,-73.79660034,Beechhurst,349000.0
24-51 38th Street #B7,N/A,1.0,1.0,Co-op,40.76810074,-73.91230011,Astoria,499000.0
81-14 Queens Boulevard #5A,1020.0,2.0,2.0,Condo,40.737222,-73.881749,Elmhurst,750000.0
144-80 Sanford Avenue #1G,1400.0,2.0,2.0,Co-op,40.75899887,-73.81780243,Flushing,425000.0
184-49 Hovendon Rd,1000.0,1.0,2.0,House,40.72000122,-73.77899933,Jamaica Estates,975000.0
116-58 155th Street,N/A,2.0,3.0,House,40.68220139,-73.78890228,South Jamaica,439777.0
42-04 114th Street,2500.0,2.0,5.0,House,40.75099945,-73.85199738,Corona,749000.0
120-26 132nd Street,N/A,3.0,5.0,Multi-family,40.67399979,-73.80660248,South Ozone Park,695000.0
26-11 96th Street,N/A,4.0,11.0,Multi-family,40.76210022,-73.87290192,East Elmhurst,1238000.0
63-84 Saunders Street #1K,860.0,1.0,1.0,Co-op,40.72869873,-73.86229706,Rego Park,295000.0
211-02 75th Avenue #1H,N/A,1.0,2.0,Co-op,40.73669815,-73.76119995,Oakland Gardens,299000.0
42-65 Kissena Boulevard #332,N/A,1.0,1.0,Co-op,40.7560997,-73.82489777,East Flushing,330000.0
13-21 Bell Boulevard,N/A,5.0,6.0,Multi-family,40.78860092,-73.78130341,Bay Terrace (Queens),1425000.0
3 Malba Dr,2448.0,N/A,5.0,House,40.78720093,-73.82460022,Malba,1391300.0
126-13 Jamaica Avenue,N/A,2.0,3.0,Multi-family,40.70159912,-73.82430267,Kew Gardens,300000.0
86-10 34th Avenue #113,1250.0,2.0,2.0,Co-op,40.75389862,-73.88079834,Jackson Heights,774000.0
27-28 Thomson Avenue #604,1338.0,2.0,N/A,Condo,40.74570084,-73.94180298,Hunters Point,1725000.0
61-25 98th Street #6C,750.0,1.0,1.0,Co-op,40.73460007,-73.85949707,Rego Park,265000.0
150-57 14th Rd,1200.0,N/A,4.0,House,40.78860092,-73.8117981,Whitestone,890000.0
99-52 66 Rd #3V,N/A,1.0,3.0,Co-op,40.72769928,-73.85289764,Rego Park,469000.0
101-18 160th Avenue,N/A,N/A,3.0,House,40.65859985,-73.83129883,Old Howard Beach,459000.0
58-33 220th Street,N/A,N/A,4.0,House,40.74959946,-73.7582016,Bayside,958000.0
58-25 220th Street,N/A,1.0,4.0,House,40.74980164,-73.75830078,Bayside,925000.0
116-36 196th Street,N/A,3.0,4.0,Multi-family,40.69390106,-73.75659943,St. Albans,485500.0
42-34 Gleane Street,N/A,7.0,9.0,Multi-family,40.74420166,-73.87529755,Elmhurst,1698000.0
4420 Douglaston Pky #1E,N/A,1.0,1.0,Co-op,40.76580048,-73.74559784,Douglaston,228888.0
62-03 39th Avenue,2000.0,3.0,7.0,Multi-family,40.74710083,-73.90129852,Woodside,1500000.0
52-16 103rd Street,N/A,N/A,6.0,Multi-family,40.74140167,-73.85810089,Corona,999999.0
116-18 170th Street,N/A,N/A,3.0,House,40.68730164,-73.7779007,South Jamaica,485000.0
4-74 48th Avenue #30F,863.0,1.0,1.0,Condop,40.74420166,-73.95680237,Hunters Point,665000.0
107-40 Queens Boulevard #4D,N/A,1.0,1.0,Co-op,40.72129822,-73.84500122,Forest Hills,399000.0
117-35 127th Street,N/A,N/A,4.0,House,40.67440033,-73.81079865,South Ozone Park,609000.0
99-26 39th Avenue,N/A,2.0,4.0,Multi-family,40.74980164,-73.8655014,North Corona,1300000.0
109-06 164th Street,N/A,N/A,5.0,Multi-family,40.69499969,-73.78929901,South Jamaica,470000.0
108-45 66th Rd,2220.0,N/A,4.0,House,40.73020172,-73.8463974,Forest Hills,1675000.0
93-31 212nd Place,1168.0,N/A,3.0,House,40.7181015,-73.74649811,Queens Village,555000.0
137-27 171st Street,N/A,N/A,2.0,House,40.6719017,-73.76909637,Springfield Gardens,299000.0
139-12 84th Dr #3G,950.0,1.0,2.0,Co-op,40.70920181,-73.81719971,Briarwood,245000.0
216-20 27th Avenue,6522.0,7.0,6.0,House,40.77939987,-73.77069855,Bayside,3129000.0
31-18 Union Street #7B,1700.0,3.0,3.0,Condo,40.76950073,-73.82700348,Flushing,970000.0
31-18 Union Street #5B,1122.0,2.0,2.0,Condo,40.76950073,-73.82700348,Flushing,607000.0
31-18 Union Street #3B,1122.0,2.0,2.0,Condo,40.76950073,-73.82700348,Flushing,605000.0
35-45 81st Street #E4,N/A,1.0,1.0,Co-op,40.75049973,-73.88510132,Jackson Heights,425000.0
91-16 Shorefront Pkwy #2H,1187.0,2.0,2.0,Condo,40.58459854,-73.81340027,Hammels,529000.0
13-33 Jackson Avenue #PHA,1446.0,3.0,3.0,Condo,40.74240112,-73.95300293,Hunters Point,2888888.0
47-23 59th Place,N/A,2.0,2.0,House,40.73939896,-73.90529633,Woodside,849000.0
149-49 16th Rd,N/A,N/A,3.0,House,40.78499985,-73.81459808,Flushing,799888.0
311 Beach 90th Street,N/A,N/A,9.0,Multi-family,40.58800125,-73.81479645,Hammels,699000.0
38-27 204th Street,3998.0,N/A,4.0,House,40.76290131,-73.78140259,Auburndale,2258000.0
131-20 132nd Street,N/A,N/A,3.0,Multi-family,40.67010117,-73.80670166,South Ozone Park,649000.0
116-14 Bessemer Street,N/A,N/A,3.0,Multi-family,40.70090103,-73.83350372,Richmond Hill,850000.0
146-30 228th Street,N/A,5.0,6.0,Multi-family,40.65850067,-73.7539978,Brookville,699000.0
188-03 Nashville Boulevard,N/A,3.0,4.0,House,40.68280029,-73.75669861,Springfield Gardens,474000.0
8616 60th Avenue #4E,N/A,2.0,2.0,Co-op,40.73049927,-73.87339783,Middle Village,299000.0
8616 60th Avenue #4B,N/A,1.0,1.0,Co-op,40.73049927,-73.87339783,Middle Village,185000.0
89-00 170th Street #1C,N/A,1.0,N/A,Co-op,40.70920181,-73.79129791,Jamaica,79999.0
85-66 Forest Pky,4300.0,N/A,9.0,Multi-family,40.69369888,-73.86180115,Woodhaven,1228000.0
21-10 44th Drive #4B,647.0,1.0,1.0,Condo,40.74779892,-73.9469986,Hunters Point,740000.0
81-23 102nd Avenue,N/A,2.5,3.0,House,40.68050003,-73.85669708,Woodhaven,639000.0
222-89 Braddock Avenue #2A,N/A,1.0,1.0,Co-op,40.72869873,-73.73570251,Bellerose,175000.0
21-48 35th Street #2A,N/A,1.0,3.0,Co-op,40.77600098,-73.90809631,Astoria,499000.0
71-11 72nd Place,1920.0,4.0,5.0,Multi-family,40.70489883,-73.87809753,Glendale,949000.0
169-20 107th Avenue,N/A,3.0,6.0,Multi-family,40.69979858,-73.78679657,St. Albans,650000.0
47-19 59 Place,2910.0,,3.0,House,40.73949814,-73.90529633,Woodside,995000.0
103-41 118th Street,N/A,2.0,2.0,House,40.68659973,-73.82520294,Richmond Hill,299000.0
22-39 97th Street,N/A,5.0,8.0,Multi-family,40.76940155,-73.87329865,East Elmhurst,1100000.0
53-14 Hollis Court Boulevard,N/A,N/A,9.0,Multi-family,40.74720001,-73.78209686,Auburndale,1388888.0
132-29 Blossom Avenue #3G,915.0,2.0,2.0,Condo,40.75220108,-73.83129883,Flushing,750000.0
36-25 Union Street #7C,N/A,N/A,2.0,Condo,40.76330185,-73.82749939,Flushing,770000.0
194-44 114 Dr,N/A,N/A,5.0,House,40.69729996,-73.7582016,St. Albans,559000.0
6-10 College Place,1992.0,N/A,5.0,House,40.79130173,-73.84799957,College Point,998000.0
107-52 110th Street,N/A,2.5,3.0,House,40.68069839,-73.83049774,Richmond Hill,599995.0
137-33 68th Drive #B,665.0,1.0,2.0,Co-op,40.73109818,-73.82980347,Kew Gardens Hills,175000.0
29-10 137th Street #2A,N/A,1.0,2.0,Co-op,40.77050018,-73.83229828,Flushing,318000.0
99-30 59th Avenue #5F,N/A,1.0,2.0,Co-op,40.73720169,-73.85739899,Corona,249000.0
43-21 215th Place,N/A,6.0,7.0,Multi-family,40.76129913,-73.76650238,Bayside,1780000.0
214-48B 29th Avenue,N/A,,N/A,N/A,40.7757988,-73.77249908,N/A,2398000.0
222-21 130th Avenue,N/A,2.0,3.0,House,40.68389893,-73.74349976,Laurelton,489999.0
105-07 66 Rd #6D,750.0,1.0,1.0,Co-op,40.729599,-73.84929657,Forest Hills,269000.0
149-40 Delaware,N/A,N/A,5.0,House,40.75759888,-73.81210327,Queensboro Hill,1199999.0
24-75 38th Street #C10,N/A,1.0,2.0,Co-op,40.76760101,-73.91280365,Astoria,559999.0
18-15 215th Street #14R,N/A,1.0,1.0,Co-op,40.78519821,-73.77549744,Bay Terrace (Queens),420000.0
24-16 90th Place,N/A,4.0,6.0,Multi-family,40.76520157,-73.8792038,East Elmhurst,1298000.0
105-24 87th Street,N/A,N/A,3.0,House,40.67919922,-73.85160065,Ozone Park,569000.0
127-14 143rd Street,1200.0,2.0,3.0,House,40.67269897,-73.7960968,South Jamaica,380000.0
21-10 44th Drive #4B,647.0,1.0,1.0,Condo,40.74779892,-73.9469986,Hunters Point,740000.0
61-20 Grand Central Pkwy #A405,1350.0,2.0,3.0,Co-op,40.7378006,-73.84750366,Forest Hills,589000.0
130-13 92nd Avenue,N/A,4.0,4.0,Multi-family,40.69800186,-73.81960297,Richmond Hill,799000.0
194-53 115th Rd,N/A,1.0,3.0,House,40.69649887,-73.75740051,St. Albans,499999.0
243-20 72nd Avenue,N/A,N/A,6.0,Multi-family,40.74890137,-73.73110199,Little Neck,1288888.0
88-34 Ransom Street,N/A,2.0,3.0,Multi-family,40.72980118,-73.73509979,Bellerose,759000.0
33-39 156th Street,N/A,N/A,3.0,House,40.76720047,-73.80840302,Murray Hill (Queens),1150000.0
105-20 78th Street,N/A,3.0,5.0,Multi-family,40.67869949,-73.85970306,Ozone Park,899000.0
102-04 189th Street,N/A,1.0,3.0,House,40.70800018,-73.76909637,Hollis,390000.0
43-33 48th Street #3A,N/A,1.0,1.0,Condo,40.74359894,-73.91639709,Sunnyside,459000.0
100-42 199th Street,N/A,N/A,3.0,House,40.70909882,-73.76010132,Hollis,525000.0
84-23 Manton Street #4G,N/A,1.0,N/A,Co-op,40.71020126,-73.8184967,Briarwood,119000.0
27-20 Butler Street,1928.0,2.0,3.0,House,40.76470184,-73.86450195,East Elmhurst,699900.0
45-41 Smart Street,2860.0,N/A,7.0,Multi-family,40.7533989,-73.8164978,East Flushing,2250000.0
44-15 Purves #5A,965.0,2.0,2.0,Condo,40.74710083,-73.94100189,Hunters Point,1195000.0
137-33 68th Drive #B,665.0,1.0,2.0,Co-op,40.73109818,-73.82980347,Kew Gardens Hills,175000.0
45-11 169th Street,N/A,2.0,3.0,House,40.75540161,-73.79779816,East Flushing,925000.0
98-05 63 Rd #11L,N/A,1.0,1.0,Co-op,40.7322998,-73.85990143,Rego Park,319000.0
58-31 206th Street,N/A,2.0,3.0,House,40.74620056,-73.77079773,Bayside,709888.0
66-01 Burns Street #3V,N/A,1.0,1.0,Co-op,40.72409821,-73.85820007,Rego Park,299000.0
142-05 Roosevelt Avenue #301,485.0,1.0,N/A,Co-op,40.76100159,-73.82589722,Flushing,298000.0
166-25 Powells Cove Boulevard #5A,2000.0,2.0,3.0,Co-op,40.79499817,-73.79660034,Beechhurst,858888.0
124-11 15th Avenue,N/A,4.0,6.0,Multi-family,40.78469849,-73.84349823,College Point,1098888.0
162-15 76th Avenue,1880.0,2.0,4.0,Multi-family,40.72579956,-73.80609894,Pomonok,1098888.0
111-23 158th Street,1280.0,N/A,3.0,House,40.68970108,-73.79070282,South Jamaica,489000.0
144-30 Sanford Avenue #3A,N/A,1.0,2.0,Co-op,40.75880051,-73.81939697,Murray Hill (Queens),425000.0
45-12 Smart Street,N/A,2.0,4.0,Multi-family,40.75389862,-73.81749725,East Flushing,1500000.0
223-20 110th Avenue,N/A,3.0,3.0,House,40.70650101,-73.73280334,Queens Village,278100.0
10-27 47th Road #PHB,1581.0,3.0,3.0,Condo,40.74480057,-73.95220184,Hunters Point,2175000.0
104-20 68 Drive #B43,1400.0,2.0,3.0,Co-op,40.72449875,-73.84870148,Forest Hills,729000.0
73-19 193rd Street,N/A,3.0,5.0,House,40.73379898,-73.77909851,Fresh Meadows,1235000.0
252-68 63rd Avenue #4-1378,960.0,1.0,2.0,Co-op,40.7560997,-73.72489929,Little Neck,325000.0
34 Center Dr,N/A,N/A,3.0,House,40.78990173,-73.82810211,Malba,818888.0
18-35 Corporal Kennedy Street #2E,1500.0,2.0,3.0,Co-op,40.7798996,-73.78289795,Bay Terrace (Queens),348000.0
65-50 Wetherole Street #LK,870.0,1.0,2.0,Condo,40.72570038,-73.85890198,Rego Park,510000.0
57-38 Cloverdale Boulevard,N/A,N/A,7.0,Multi-family,40.75239944,-73.7519989,Bayside,1450000.0
123-25 82nd Avenue #3H,500.0,1.0,N/A,Co-op,40.71269989,-73.82830048,Kew Gardens,180000.0
116-21 126th Street,N/A,2.0,2.0,House,40.67639923,-73.81199646,South Ozone Park,388000.0
109-04 175th Street,800.0,2.0,2.0,House,40.69889832,-73.78040314,St. Albans,355000.0
52-15 65th Place #4D,N/A,1.0,2.0,Co-op,40.73300171,-73.89980316,Elmhurst,265000.0
97-10 62nd Dr #7H,900.0,1.0,2.0,Co-op,40.7322998,-73.85990143,Rego Park,364888.0
89-40 217th Street,N/A,2.0,2.0,House,40.7262001,-73.74610138,Queens Village,459900.0
34-48 86th Street,2600.0,3.5,5.0,House,40.75270081,-73.88140106,Jackson Heights,1675000.0
25-26 78th Street,1723.0,2.0,3.0,Multi-family,40.76190186,-73.89060211,Jackson Heights,500000.0
57-40 225th Street,N/A,N/A,6.0,Multi-family,40.75189972,-73.75370026,Bayside,1428000.0
84-02 108th Avenue,1180.0,2.0,2.0,House,40.67670059,-73.8526001,Ozone Park,599000.0
109-03 177th Street,1300.0,N/A,3.0,House,40.69979858,-73.77829742,St. Albans,499999.0
135-24 94th Street,1536.0,2.0,4.0,House,40.67309952,-73.84249878,Ozone Park,569000.0
150-24 Booth Memorial Avenue,N/A,3.0,3.0,House,40.74349976,-73.81729889,Flushing,868000.0
68-17 Exeter Street,2583.0,N/A,4.0,Multi-family,40.7195015,-73.85240173,Forest Hills,1395000.0
198-08 Pompeii Avenue #2C,N/A,1.0,2.0,Co-op,40.72090149,-73.76540375,Jamaica Estates,250000.0
108-05 Astoria Boulevard #6G,N/A,1.0,1.0,Co-op,40.76060104,-73.8608017,East Elmhurst,179000.0
35-06 Leavitt Street #5D,N/A,2.0,2.0,Condo,40.76470184,-73.82929993,Flushing,648000.0
206-43 46th Rd,N/A,2.0,6.0,Multi-family,40.7560997,-73.77429962,Bayside,1395000.0
45-52 215 Place,1520.0,N/A,3.0,House,40.75910187,-73.76629639,Bayside,899000.0
18-09 160th Street #5-52,525.0,1.0,1.0,Co-op,40.78239822,-73.80190277,Clearview,183888.0
2-40 51st Avenue #TH1C,1186.0,1.5,1.0,Condo,40.74229813,-73.9571991,Hunters Point,1198000.0
104-20 68 Drive #B43,1400.0,2.0,3.0,Co-op,40.72449875,-73.84870148,Forest Hills,729000.0
219-06 67th Avenue #1,N/A,1.0,3.0,Co-op,40.74359894,-73.75509644,Bayside,345000.0
154-37 Riverside Dr,N/A,3.0,4.0,House,40.79550171,-73.80519867,Beechhurst,1390000.0
41-14 68th Street #1D,862.0,1.0,2.0,Condo,40.74409866,-73.89720154,Woodside,580000.0
158-33 73rd Avenue,N/A,2.0,3.0,Multi-family,40.72750092,-73.80970001,Pomonok,1079999.0
39-60 54th Street #2O,700.0,1.0,1.0,Co-op,40.74639893,-73.91020203,Woodside,284900.0
116-15 14th Rd,1980.0,2.0,6.0,Multi-family,40.78490067,-73.85070038,College Point,1048888.0
1830 Everdell Avenue,N/A,6.0,9.0,Multi-family,40.60129929,-73.751297,Far Rockaway,820000.0
240-20 146th Avenue,N/A,N/A,4.0,House,40.65800095,-73.74410248,Rosedale,474990.0
100-11 67th Rd #611,N/A,1.0,1.0,Co-op,40.72589874,-73.85359955,Forest Hills,279000.0
87-12 101st Avenue,N/A,N/A,4.0,Multi-family,40.68230057,-73.85230255,Woodhaven,999000.0
33-27 91st Street #1A,N/A,N/A,2.0,Co-op,40.75559998,-73.87640381,North Corona,368000.0
92-48 52nd Avenue #3,575.0,1.0,1.0,Condo,40.73970032,-73.86940002,Elmhurst,415000.0
10-27 47th Road #PHB,1581.0,3.0,3.0,Condo,40.74480057,-73.95220184,Hunters Point,2175000.0
81-23 102nd Avenue,N/A,2.5,3.0,House,40.68050003,-73.85669708,Woodhaven,639000.0
132-18 Sanford Avenue #3R,629.0,1.0,1.0,Condo,40.75469971,-73.83249664,Flushing,638000.0
72-35 Metropolitan Avenue #1D,750.0,1.0,2.0,Condo,40.71319962,-73.88069916,Middle Village,549000.0
35-06 Leavitt Street #6C,1120.0,2.0,2.0,Condo,40.76470184,-73.82929993,Flushing,689000.0
142-19 Farmers Boulevard,1890.0,2.5,4.0,Multi-family,40.66970062,-73.76519775,Springfield Gardens,669000.0
110-17 171 Place,N/A,2.0,3.0,House,40.69580078,-73.78179932,St. Albans,479000.0
99-40 63 Rd #1N,N/A,1.0,2.0,Co-op,40.7322998,-73.85549927,Rego Park,379000.0
150-38 Union Tpke #12C,1050.0,2.0,2.0,Condo,40.71849823,-73.81099701,Briarwood,597888.0
7806 46th Avenue #6E,530.0,1.0,N/A,Co-op,40.74020004,-73.88690186,Elmhurst,198000.0
115-29 126th Street,N/A,N/A,2.0,House,40.6780014,-73.81279755,South Ozone Park,455000.0
135-08 134th Street,N/A,3.0,4.0,House,40.66740036,-73.80549622,Rockaway Park,749000.0
135-32 124th Street,N/A,3.0,3.0,Multi-family,40.66870117,-73.81580353,South Ozone Park,769000.0
86-12 107th Avenue,N/A,N/A,5.0,House,40.67760086,-73.85089874,Ozone Park,679000.0
107-40 Queens Boulevard #4D,N/A,1.0,1.0,Co-op,40.72129822,-73.84500122,Forest Hills,399000.0
107-52 110th Street,N/A,2.5,3.0,House,40.68069839,-73.83049774,Richmond Hill,599995.0
37-06 62nd Street,3078.0,3.0,7.0,Multi-family,40.74900055,-73.90090179,Woodside,1298000.0
196-35 69th Avenue #2FL,N/A,1.0,1.0,Co-op,40.73820114,-73.77719879,Fresh Meadows,152000.0
101-21 113th Street,N/A,2.0,3.0,House,40.68790054,-73.83059692,Richmond Hill,549000.0
18-05 215th Street #2E,1220.0,2.0,2.0,Co-op,40.78379822,-73.77480316,Bay Terrace (Queens),599000.0
83-35 139th Street #5H,N/A,1.0,2.0,Co-op,40.71229935,-73.81890106,Briarwood,300000.0
89-16 74th Avenue,N/A,1.0,3.0,House,40.70949936,-73.86060333,Glendale,675000.0
5117 Junction Boulevard,N/A,N/A,9.0,Multi-family,40.74039841,-73.86720276,Corona,1890000.0
14-02 116th Street,3400.0,N/A,4.0,House,40.78559875,-73.85150146,College Point,1249888.0
141-18 Cherry Avenue #3H,555.0,1.0,1.0,Condo,40.75469971,-73.82099915,Flushing,535000.0
151-37 17th Rd,1908.0,2.0,2.0,House,40.78329849,-73.81020355,Flushing,836000.0
211-06 75th Avenue #2E,1000.0,1.0,2.0,Co-op,40.73669815,-73.76119995,Oakland Gardens,329000.0
42-42 64th Street,3333.0,N/A,6.0,Multi-family,40.74229813,-73.90139771,Woodside,1600000.0
21-10 44th Drive #4B,647.0,1.0,1.0,Condo,40.74779892,-73.9469986,Hunters Point,740000.0
24-51 38th Street #B7,N/A,1.0,1.0,Co-op,40.76810074,-73.91230011,Astoria,499000.0
42-42 64th Street,3333.0,N/A,6.0,Multi-family,40.74229813,-73.90139771,Woodside,1600000.0
179-47 Selover Rd,N/A,1.0,3.0,House,40.68399811,-73.76390076,St. Albans,399900.0
84-49 168th Street #1S,N/A,1.0,1.0,Co-op,40.71469879,-73.79660034,Jamaica Hills,90000.0
220-55 46th Avenue #7B,N/A,1.0,1.0,Co-op,40.76079941,-73.75939941,Bayside,298000.0
32-45 96th Street,N/A,N/A,2.0,House,40.75749969,-73.87210083,North Corona,738000.0
49-27 167th Street,N/A,N/A,3.0,House,40.74810028,-73.80069733,East Flushing,988000.0
95-08 65 Rd #2A,N/A,1.0,1.0,Condo,40.72660065,-73.85900116,Rego Park,469000.0
195-15 42nd Avenue,N/A,N/A,8.0,Multi-family,40.75989914,-73.78630066,East Flushing,2150000.0
149-49 15 Rd,N/A,3.0,5.0,Multi-family,40.78639984,-73.81439972,Flushing,1250000.0
29-08 139th Street #2A,N/A,1.0,1.0,Co-op,40.77149963,-73.83010101,Flushing,219000.0
219-08 130 Dr,N/A,2.0,3.0,House,40.68320084,-73.74790192,Laurelton,440000.0
94-11 60th Avenue #2J,1300.0,N/A,3.0,Co-op,40.73469925,-73.86579895,Elmhurst,419000.0
34-40 79th Street #1F,N/A,2.0,2.0,Co-op,40.7521019,-73.88790131,Jackson Heights,649000.0
86-10 34th Avenue #116,950.0,1.0,2.0,Co-op,40.75389862,-73.88079834,Jackson Heights,575000.0
196-27 Dunton Avenue #1C,N/A,1.0,2.0,Co-op,40.71989822,-73.76679993,Jamaica Estates,250000.0
88-05 Winchester Boulevard,4000.0,N/A,3.0,Multi-family,40.73040009,-73.73629761,Bellerose,719000.0
44-65 Kissena Boulevard #1E,1050.0,1.0,2.0,Co-op,40.75299835,-73.8207016,East Flushing,339000.0
155-41 115th Avenue,1804.0,2.0,5.0,Multi-family,40.68619919,-73.78970337,South Jamaica,689000.0
160-10 89th Avenue #7F,N/A,1.0,N/A,Co-op,40.70589828,-73.80039978,Jamaica,110000.0
94-17 52nd Avenue,N/A,2.0,4.0,House,40.74020004,-73.86840057,Elmhurst,850000.0
105-55 62 Dr #4B,N/A,N/A,2.0,Co-op,40.7356987,-73.85160065,Forest Hills,499000.0
220-55 46th Avenue #3R,N/A,1.0,N/A,Co-op,40.76079941,-73.75939941,Bayside,189000.0
48-25 Glenwood Street,N/A,N/A,4.0,House,40.7696991,-73.73059845,Little Neck,1118000.0
88-30 182nd Street #3E,N/A,1.0,N/A,Co-op,40.71229935,-73.78050232,Hollis,80000.0
212-30 23rd Avenue #3D,N/A,1.0,1.0,Co-op,40.78170013,-73.77680206,Bay Terrace (Queens),228000.0
109-52 Guy R Brewer Boulevard,2540.0,2.0,6.0,Multi-family,40.69350052,-73.78929901,South Jamaica,589000.0
27-21 44th Dr #2202,1263.0,2.0,3.0,Condo,40.7466011,-73.94159698,Hunters Point,1760000.0
44-15 Purves Street #3C,696.0,1.0,1.0,Condo,40.74710083,-73.94100189,Hunters Point,898000.0
33-45 94th Street #1K,N/A,1.0,1.0,Co-op,40.75569916,-73.87359619,North Corona,175000.0
84-05 Shore Pky #2NDFL,N/A,1.0,2.0,Co-op,40.66410065,-73.84880066,Lindenwood,169900.0
179-25 Eveleth Rd,N/A,2.0,3.0,House,40.68230057,-73.76210022,St. Albans,495000.0
147-52 Charter Road #37GA,N/A,1.0,2.0,Co-op,40.71780014,-73.81310272,Kew Gardens Hills,215000.0
34-43 60th Street #3I,760.0,1.0,1.0,Co-op,40.75059891,-73.90180206,Woodside,310000.0
34-11 146th Street,N/A,4.0,7.0,Multi-family,40.76689911,-73.82089996,Murray Hill (Queens),1400000.0
28-02 Parsons Boulevard #3C,N/A,1.0,2.0,Co-op,40.77349854,-73.82559967,Flushing,299000.0
100-06 Shore Front Pky #21C,1720.0,N/A,3.0,Condo,40.58300018,-73.82099915,Rockaway All,850000.0
69-38 Myrtle Avenue,N/A,N/A,5.0,Multi-family,40.7018013,-73.88140106,Glendale,1398000.0
10255 67th Road #1Y,750.0,1.0,1.0,Co-op,40.7276001,-73.85050201,Forest Hills,299000.0
34-28 Bell Boulevard,N/A,N/A,6.0,House,40.7696991,-73.7743988,Bayside,1290000.0
88-17 75th Street,N/A,3.0,4.0,House,40.69094849,-73.8666687,Woodhaven,669000.0
13-33 Jackson Avenue #PHA,1446.0,3.0,3.0,Condo,40.74240112,-73.95300293,Hunters Point,2888888.0
107-52 110th Street,N/A,2.5,3.0,House,40.68069839,-73.83049774,Richmond Hill,599995.0
168-04 81st Avenue,N/A,2.0,4.0,House,40.7215004,-73.79940033,Jamaica Hills,890000.0
148-17 Sutter Avenue,N/A,1.0,2.0,House,40.67160034,-73.78959656,South Jamaica,389000.0
66-06 Grand Central Pky #3A,N/A,1.0,2.0,Co-op,40.73120117,-73.84380341,Forest Hills,299000.0
94-06 Forbell Street,2000.0,2.0,5.0,Multi-family,40.68310165,-73.8655014,Woodhaven,759000.0
30-14 146th Street,1669.0,N/A,6.0,House,40.77030182,-73.8219986,Murray Hill (Queens),1288880.0
210-25 35th Avenue,2862.0,N/A,5.0,House,40.76850128,-73.77670288,Bayside,1539000.0
60-67 67th Avenue,2760.0,N/A,6.0,Multi-family,40.70550156,-73.89790344,Ridgewood,1088000.0
95-26 90th Street,N/A,6.0,8.0,Multi-family,40.68510056,-73.85160065,Woodhaven,1148000.0
220-55 46th Avenue #15M,N/A,1.0,N/A,Co-op,40.76079941,-73.75939941,Bayside,264000.0
151-64 Seventh Avenue,N/A,3.0,4.0,House,40.7947998,-73.81109619,Whitestone,879000.0
161-31 87th Street,N/A,N/A,4.0,House,40.65409851,-73.84410095,Rockwood Park,649900.0
23-25 Bell Boulevard #2J,1000.0,1.0,2.0,Co-op,40.78160095,-73.77490234,Bay Terrace (Queens),259000.0
77-16 Austin Street #2G,1200.0,1.0,2.0,Co-op,40.71409988,-73.83540344,Forest Hills,475000.0
81-23 102nd Avenue,N/A,2.5,3.0,House,40.68050003,-73.85669708,Woodhaven,639000.0
214-47 27th Avenue,N/A,N/A,4.0,House,40.7784996,-73.77400208,Bayside,1780000.0
83-35 139th Street #6S,N/A,2.0,2.0,Co-op,40.71229935,-73.81890106,Briarwood,330000.0
223-34 108th Avenue,N/A,3.0,4.0,House,40.70780182,-73.73179626,Queens Village,575000.0
42-95 Main Street #4J,900.0,1.0,2.0,Co-op,40.75289917,-73.8266983,Flushing,359000.0
114-72 204th Street,N/A,2.0,3.0,House,40.69900131,-73.75050354,St. Albans,440000.0
1 Station Sq #401,N/A,1.0,1.0,Co-op,40.71889877,-73.8451004,Forest Hills,329000.0
61-25 98th Street #16E,1300.0,2.0,3.0,Co-op,40.73460007,-73.85949707,Rego Park,659000.0
218-17 137th Rd,N/A,3.0,5.0,Multi-family,40.6753006,-73.75299835,Laurelton,359990.0
61-45 98th Street #1H,950.0,1.0,2.0,Co-op,40.73360062,-73.85929871,Rego Park,395000.0
211-15 47th Avenue,N/A,N/A,3.0,House,40.75650024,-73.77020264,Bayside,788000.0
146-35 Willets Point Boulevard,1440.0,N/A,3.0,House,40.77679825,-73.82029724,Flushing,1149000.0
141-05 Northern Boulevard #5K,N/A,1.0,1.0,Co-op,40.76499939,-73.82559967,Flushing,269000.0
4-74 48th Avenue #30F,863.0,1.0,1.0,Condop,40.74420166,-73.95680237,Hunters Point,665000.0
27-28 Thomson Avenue #350,1901.0,2.5,2.0,Condo,40.74570084,-73.94180298,Hunters Point,2399000.0
145-20 Shore Avenue,N/A,2.0,6.0,Multi-family,40.69100189,-73.80349731,South Jamaica,729000.0
107-29 124th Street,975.0,1.0,2.0,House,40.68479919,-73.81839752,Richmond Hill,499000.0
30-43 92nd Street,N/A,N/A,4.0,House,40.76050186,-73.87650299,Jackson Heights,675000.0
37-20 Prince Street #13B,900.0,1.0,2.0,Condo,40.7602005,-73.83309937,Flushing,829000.0
65-50 Wetherole Street #1E,970.0,1.0,2.0,Condo,40.72570038,-73.85890198,Rego Park,585000.0
179-11 144th Avenue,N/A,N/A,3.0,House,40.66859818,-73.76570129,Springfield Gardens,325000.0
140-39 34th Avenue #5R,950.0,1.0,2.0,Co-op,40.76699829,-73.82620239,Queensboro Hill,292000.0
57-18 253rd Street,N/A,N/A,9.0,Multi-family,40.76160049,-73.72730255,Little Neck,1599000.0
23-60 204th Street,1130.0,2.0,3.0,House,40.77539825,-73.78869629,Clearview,825000.0
38-12 114th Street,6500.0,8.0,7.0,Multi-family,40.75370026,-73.85359955,North Corona,2100000.0
220-55 46th Avenue #3D,750.0,1.0,1.0,Co-op,40.76079941,-73.75939941,Bayside,295800.0
72-74 Calamus Avenue,N/A,N/A,5.0,Multi-family,40.73450089,-73.88960266,Elmhurst,1150000.0
34-48 86th Street,2600.0,3.5,5.0,House,40.75270081,-73.88140106,Jackson Heights,1675000.0
61-05 39th Avenue #4F,854.0,1.0,1.0,Condo,40.74729919,-73.90219879,Woodside,588000.0
138-11 Beach Channel Dr #C6,N/A,1.0,1.0,Co-op,40.57780075,-73.85849762,Belle Harbor,155000.0
84-50 249th Street,2100.0,4.0,5.0,House,40.7336998,-73.71800232,Bellerose,1249000.0
108-38 48th Avenue,N/A,8.0,10.0,Multi-family,40.74610138,-73.85489655,Corona,1990000.0
147-18 111th Avenue,N/A,N/A,3.0,House,40.68790054,-73.79669952,South Jamaica,539000.0
1866 Stockholm Street,2480.0,N/A,5.0,Multi-family,40.70840073,-73.91359711,Ridgewood,1375000.0
80-09 35th Avenue #D9,N/A,1.0,3.0,Condo,40.75189972,-73.88610077,Jackson Heights,730000.0
31-41 12th Street,4050.0,N/A,6.0,Multi-family,40.76760101,-73.93419647,Astoria,5500000.0
24-40 150th Street,N/A,2.0,6.0,Multi-family,40.77610016,-73.81520081,Flushing,1888000.0
4632 Douglaston Pky,N/A,N/A,5.0,House,40.76300049,-73.74340057,Little Neck,2098000.0
135-09 222nd Street,1408.0,N/A,3.0,House,40.67630005,-73.74810028,Laurelton,388000.0
316 Beach 47,N/A,2.0,6.0,Multi-family,40.59400177,-73.77780151,Edgemere,348000.0
260-14 58th Avenue,N/A,4.0,5.0,House,40.76200104,-73.72160339,Little Neck,1199999.0
107-40 Queens Boulevard #4D,N/A,1.0,1.0,Co-op,40.72129822,-73.84500122,Forest Hills,399000.0
86-10 34th Avenue #116,950.0,1.0,2.0,Co-op,40.75389862,-73.88079834,Jackson Heights,575000.0
4420 Douglaston Pky #6D/E,1075.0,2.0,2.0,Co-op,40.76580048,-73.74559784,Douglaston,473000.0
36-41 Corporal Kennedy Street,N/A,2.0,4.0,House,40.7655983,-73.77680206,Bayside,1068000.0
90-09 182 Place,N/A,N/A,3.0,House,40.71049881,-73.7786026,Hollis,550000.0
67-32 48th Avenue,N/A,5.0,7.0,Multi-family,40.73809814,-73.89649963,Elmhurst,1730000.0
